{
    "-1091759796/8373956759818432317": {
        "departureTime": "2019-05-19T13:00:00.000+02:00",
        "ar_time": "2019-05-20T15:10:00.000+02:00",
        "stops": "1",
        "companyName": "Eurolines Switzerland",
        "cID": "3113",
        "price": 67.22,
        "segment": [
            -1335695778,
            -164569285
        ],
        "mode": "bus",
        "stations_dep": [
            {
                "positionType": "busstation",
                "name": "Berlin - Zob Am Funkturm",
                "countryCode": "DE",
                "cityName": "Berlin",
                "latitude": 52.50753,
                "longitude": 13.27983
            },
            {
                "positionType": "busstation",
                "name": "Prague - \u00daan Florenc"
            }
        ],
        "stattions_ar": [
            {
                "positionType": "busstation",
                "name": "Prague - \u00daan Florenc"
            },
            {
                "positionType": "busstation",
                "name": "Amsterdam - Sloterdijk",
                "countryCode": "NL",
                "cityName": "Amsterdam",
                "latitude": 52.346153,
                "longitude": 4.918828
            }
        ],
        "url": "https://www.omio.com/search-frontend/journey/bus/-1091759796/XC2D654A2721948679E1335BAEC87E211/8373956759818432317"
    },
    "1949442406/7944692194456323389": {
        "departureTime": "2019-05-19T23:00:00.000+02:00",
        "ar_time": "2019-05-20T10:53:00.000+02:00",
        "stops": "5",
        "companyName": "Deutsche Bahn",
        "cID": "112",
        "price": 81.15,
        "segment": [
            1509973185,
            -2096423104,
            -2101978136,
            1866738245,
            -834901506,
            22310709
        ],
        "mode": "train",
        "stations_dep": [
            {
                "positionType": "station",
                "name": "Berlin Hbf",
                "countryCode": "DE",
                "cityName": "Berlin",
                "latitude": 52.525589,
                "longitude": 13.369548
            },
            {
                "positionType": "station",
                "name": "Hamburg Hbf",
                "countryCode": "DE",
                "cityName": "Hamburg",
                "latitude": 53.55273,
                "longitude": 10.006908
            },
            {
                "positionType": "station",
                "name": "Bremen Hbf",
                "countryCode": "DE",
                "cityName": "Bremen",
                "latitude": 53.083477,
                "longitude": 8.813833
            },
            {
                "positionType": "station",
                "name": "Leer(Ostfriesl)",
                "countryCode": "DE",
                "cityName": "Leer",
                "latitude": 53.231647,
                "longitude": 7.46528
            },
            {
                "positionType": "station",
                "name": "Groningen",
                "countryCode": "NL",
                "cityName": "Groningen",
                "latitude": 53.210684,
                "longitude": 6.564273
            },
            {
                "positionType": "station",
                "name": "Almere Centrum",
                "countryCode": "NL",
                "cityName": "Almere",
                "latitude": 52.375244,
                "longitude": 5.218768
            }
        ],
        "stattions_ar": [
            {
                "positionType": "station",
                "name": "Hamburg, Hauptbahnhof/ZOB",
                "countryCode": "DE",
                "cityName": "Hamburg",
                "latitude": 53.551936,
                "longitude": 10.01161
            },
            {
                "positionType": "station",
                "name": "Bremen Hbf",
                "countryCode": "DE",
                "cityName": "Bremen",
                "latitude": 53.083477,
                "longitude": 8.813833
            },
            {
                "positionType": "station",
                "name": "Leer(Ostfriesl)",
                "countryCode": "DE",
                "cityName": "Leer",
                "latitude": 53.231647,
                "longitude": 7.46528
            },
            {
                "positionType": "station",
                "name": "Groningen",
                "countryCode": "NL",
                "cityName": "Groningen",
                "latitude": 53.210684,
                "longitude": 6.564273
            },
            {
                "positionType": "station",
                "name": "Almere Centrum",
                "countryCode": "NL",
                "cityName": "Almere",
                "latitude": 52.375244,
                "longitude": 5.218768
            },
            {
                "positionType": "station",
                "name": "Amsterdam Centraal",
                "countryCode": "NL",
                "cityName": "Amsterdam",
                "latitude": 52.3789,
                "longitude": 4.900349
            }
        ],
        "url": "https://www.omio.com/search-frontend/journey/train/1949442406/XC2D654A2721948679E1335BAEC87E211/7944692194456323389"
    },
    "1114571419/5135592508182839613": {
        "departureTime": "2019-05-19T21:20:00.000+02:00",
        "ar_time": "2019-05-20T08:35:00.000+02:00",
        "stops": "2",
        "companyName": "Deutsche Bahn with connection",
        "cID": "3367",
        "price": 165.09,
        "segment": [
            769208353,
            2141446420,
            -1064246736
        ],
        "mode": "train",
        "stations_dep": [
            {
                "positionType": "station",
                "name": "Berlin Hbf",
                "countryCode": "DE",
                "cityName": "Berlin",
                "latitude": 52.525589,
                "longitude": 13.369548
            },
            {
                "positionType": "station",
                "name": "Duisburg Hbf",
                "countryCode": "DE",
                "cityName": "Duisburg",
                "latitude": 51.429787,
                "longitude": 6.775906
            },
            {
                "positionType": "station",
                "name": "Arnhem",
                "countryCode": "NL",
                "cityName": "Arnhem",
                "latitude": 51.98478,
                "longitude": 5.901004
            }
        ],
        "stattions_ar": [
            {
                "positionType": "station",
                "name": "Duisburg Hbf",
                "countryCode": "DE",
                "cityName": "Duisburg",
                "latitude": 51.429787,
                "longitude": 6.775906
            },
            {
                "positionType": "station",
                "name": "Arnhem",
                "countryCode": "NL",
                "cityName": "Arnhem",
                "latitude": 51.98478,
                "longitude": 5.901004
            },
            {
                "positionType": "station",
                "name": "Amsterdam Centraal",
                "countryCode": "NL",
                "cityName": "Amsterdam",
                "latitude": 52.3789,
                "longitude": 4.900349
            }
        ],
        "url": "https://www.omio.com/search-frontend/journey/train/1114571419/XC2D654A2721948679E1335BAEC87E211/5135592508182839613"
    },
    "1290563670/6289648980194906429": {
        "departureTime": "2019-05-19T20:34:00.000+02:00",
        "ar_time": "2019-05-20T08:05:00.000+02:00",
        "stops": "5",
        "companyName": "Deutsche Bahn with connection",
        "cID": "3367",
        "price": 92.76,
        "segment": [
            418300375,
            300227376,
            1228825099,
            2044824064,
            352855135,
            -85297156
        ],
        "mode": "train",
        "stations_dep": [
            {
                "positionType": "station",
                "name": "Berlin Hbf",
                "countryCode": "DE",
                "cityName": "Berlin",
                "latitude": 52.525589,
                "longitude": 13.369548
            },
            {
                "positionType": "station",
                "name": "M\u00fcnster(Westf) Hbf",
                "countryCode": "DE",
                "cityName": "M\u00fcnster",
                "latitude": 51.956562,
                "longitude": 7.635716
            },
            {
                "positionType": "station",
                "name": "D\u00fcsseldorf Hbf",
                "countryCode": "DE",
                "cityName": "D\u00fcsseldorf",
                "latitude": 51.21996,
                "longitude": 6.794316
            },
            {
                "positionType": "station",
                "name": "M\u00f6nchengladbach Hbf",
                "countryCode": "DE",
                "cityName": "M\u00f6nchengladbach",
                "latitude": 51.196579,
                "longitude": 6.44611
            },
            {
                "positionType": "station",
                "name": "Venlo",
                "countryCode": "NL",
                "cityName": "Venlo",
                "latitude": 51.36361,
                "longitude": 6.1727777
            },
            {
                "positionType": "station",
                "name": "Utrecht Centraal",
                "countryCode": "NL",
                "cityName": "Utrecht",
                "latitude": 52.089396,
                "longitude": 5.109864
            }
        ],
        "stattions_ar": [
            {
                "positionType": "station",
                "name": "M\u00fcnster(Westf) Hbf",
                "countryCode": "DE",
                "cityName": "M\u00fcnster",
                "latitude": 51.956562,
                "longitude": 7.635716
            },
            {
                "positionType": "station",
                "name": "D\u00fcsseldorf Hbf",
                "countryCode": "DE",
                "cityName": "D\u00fcsseldorf",
                "latitude": 51.21996,
                "longitude": 6.794316
            },
            {
                "positionType": "station",
                "name": "M\u00f6nchengladbach Hbf",
                "countryCode": "DE",
                "cityName": "M\u00f6nchengladbach",
                "latitude": 51.196579,
                "longitude": 6.44611
            },
            {
                "positionType": "station",
                "name": "Venlo",
                "countryCode": "NL",
                "cityName": "Venlo",
                "latitude": 51.36361,
                "longitude": 6.1727777
            },
            {
                "positionType": "station",
                "name": "Utrecht Centraal",
                "countryCode": "NL",
                "cityName": "Utrecht",
                "latitude": 52.089396,
                "longitude": 5.109864
            },
            {
                "positionType": "station",
                "name": "Amsterdam Centraal",
                "countryCode": "NL",
                "cityName": "Amsterdam",
                "latitude": 52.3789,
                "longitude": 4.900349
            }
        ],
        "url": "https://www.omio.com/search-frontend/journey/train/1290563670/XC2D654A2721948679E1335BAEC87E211/6289648980194906429"
    },
    "-349836782/8734013708024755261": {
        "departureTime": "2019-05-19T23:00:00.000+02:00",
        "ar_time": "2019-05-20T10:55:00.000+02:00",
        "stops": "4",
        "companyName": "Deutsche Bahn with connection",
        "cID": "3367",
        "price": 92.76,
        "segment": [
            1509973185,
            -1398336294,
            2035587486,
            -807140001,
            623839582
        ],
        "mode": "train",
        "stations_dep": [
            {
                "positionType": "station",
                "name": "Berlin Hbf",
                "countryCode": "DE",
                "cityName": "Berlin",
                "latitude": 52.525589,
                "longitude": 13.369548
            },
            {
                "positionType": "station",
                "name": "Hamburg Hbf",
                "countryCode": "DE",
                "cityName": "Hamburg",
                "latitude": 53.55273,
                "longitude": 10.006908
            },
            {
                "positionType": "station",
                "name": "Osnabr\u00fcck Hbf",
                "countryCode": "DE",
                "cityName": "Osnabr\u00fcck",
                "latitude": 52.272846,
                "longitude": 8.061777
            },
            {
                "positionType": "station",
                "name": "Hengelo",
                "countryCode": "NL",
                "cityName": "Hengelo",
                "latitude": 52.261854,
                "longitude": 6.793723
            },
            {
                "positionType": "station",
                "name": "Utrecht Centraal",
                "countryCode": "NL",
                "cityName": "Utrecht",
                "latitude": 52.089396,
                "longitude": 5.109864
            }
        ],
        "stattions_ar": [
            {
                "positionType": "station",
                "name": "Hamburg, Hauptbahnhof/ZOB",
                "countryCode": "DE",
                "cityName": "Hamburg",
                "latitude": 53.551936,
                "longitude": 10.01161
            },
            {
                "positionType": "station",
                "name": "Osnabr\u00fcck Hbf",
                "countryCode": "DE",
                "cityName": "Osnabr\u00fcck",
                "latitude": 52.272846,
                "longitude": 8.061777
            },
            {
                "positionType": "station",
                "name": "Hengelo",
                "countryCode": "NL",
                "cityName": "Hengelo",
                "latitude": 52.261854,
                "longitude": 6.793723
            },
            {
                "positionType": "station",
                "name": "Utrecht Centraal",
                "countryCode": "NL",
                "cityName": "Utrecht",
                "latitude": 52.089396,
                "longitude": 5.109864
            },
            {
                "positionType": "station",
                "name": "Amsterdam Centraal",
                "countryCode": "NL",
                "cityName": "Amsterdam",
                "latitude": 52.3789,
                "longitude": 4.900349
            }
        ],
        "url": "https://www.omio.com/search-frontend/journey/train/-349836782/XC2D654A2721948679E1335BAEC87E211/8734013708024755261"
    },
    "877202763/7584706564259534141": {
        "departureTime": "2019-05-19T16:53:00.000+02:00",
        "ar_time": "2019-05-20T00:50:00.000+02:00",
        "stops": "4",
        "companyName": "Deutsche Bahn with connection",
        "cID": "3367",
        "price": 135.6,
        "segment": [
            754555485,
            1481164767,
            -985759024,
            -745025427,
            -516522601
        ],
        "mode": "train",
        "stations_dep": [
            {
                "positionType": "station",
                "name": "Berlin Hbf (tief)",
                "countryCode": "DE",
                "cityName": "Berlin",
                "latitude": 52.525589,
                "longitude": 13.369548
            },
            {
                "positionType": "station",
                "name": "Hanover Hbf",
                "countryCode": "DE",
                "cityName": "Hanover",
                "latitude": 52.376763,
                "longitude": 9.741016
            },
            {
                "positionType": "station",
                "name": "Rheine",
                "countryCode": "DE",
                "cityName": "Rheine",
                "latitude": 52.275555,
                "longitude": 7.434722
            },
            {
                "positionType": "station",
                "name": "Hengelo",
                "countryCode": "NL",
                "cityName": "Hengelo",
                "latitude": 52.261854,
                "longitude": 6.793723
            },
            {
                "positionType": "station",
                "name": "Zwolle",
                "countryCode": "NL",
                "cityName": "Zwolle",
                "latitude": 52.504723,
                "longitude": 6.091944
            }
        ],
        "stattions_ar": [
            {
                "positionType": "station",
                "name": "Hanover Hbf",
                "countryCode": "DE",
                "cityName": "Hanover",
                "latitude": 52.376763,
                "longitude": 9.741016
            },
            {
                "positionType": "station",
                "name": "Rheine",
                "countryCode": "DE",
                "cityName": "Rheine",
                "latitude": 52.275555,
                "longitude": 7.434722
            },
            {
                "positionType": "station",
                "name": "Hengelo",
                "countryCode": "NL",
                "cityName": "Hengelo",
                "latitude": 52.261854,
                "longitude": 6.793723
            },
            {
                "positionType": "station",
                "name": "Zwolle",
                "countryCode": "NL",
                "cityName": "Zwolle",
                "latitude": 52.504723,
                "longitude": 6.091944
            },
            {
                "positionType": "station",
                "name": "Amsterdam Centraal",
                "countryCode": "NL",
                "cityName": "Amsterdam",
                "latitude": 52.3789,
                "longitude": 4.900349
            }
        ],
        "url": "https://www.omio.com/search-frontend/journey/train/877202763/XC2D654A2721948679E1335BAEC87E211/7584706564259534141"
    },
    "1664490055/6152319886735800125": {
        "departureTime": "2019-05-19T00:20:00.000+02:00",
        "ar_time": "2019-05-19T10:44:00.000+02:00",
        "stops": "1",
        "companyName": "Deutsche Bahn",
        "cID": "112",
        "price": 182.04,
        "segment": [
            -1562415344,
            2067691899
        ],
        "mode": "train",
        "stations_dep": [
            {
                "positionType": "station",
                "name": "Berlin Hbf",
                "countryCode": "DE",
                "cityName": "Berlin",
                "latitude": 52.525589,
                "longitude": 13.369548
            },
            {
                "positionType": "station",
                "name": "Cologne Hbf",
                "countryCode": "DE",
                "cityName": "Cologne",
                "latitude": 50.943027,
                "longitude": 6.958729
            }
        ],
        "stattions_ar": [
            {
                "positionType": "station",
                "name": "Cologne Hbf",
                "countryCode": "DE",
                "cityName": "Cologne",
                "latitude": 50.943027,
                "longitude": 6.958729
            },
            {
                "positionType": "station",
                "name": "Amsterdam Centraal",
                "countryCode": "NL",
                "cityName": "Amsterdam",
                "latitude": 52.3789,
                "longitude": 4.900349
            }
        ],
        "url": "https://www.omio.com/search-frontend/journey/train/1664490055/XC2D654A2721948679E1335BAEC87E211/6152319886735800125"
    },
    "-918013381/5073427401320841533": {
        "departureTime": "2019-05-19T08:48:00.000+02:00",
        "ar_time": "2019-05-19T15:00:00.000+02:00",
        "stops": "1",
        "companyName": "Deutsche Bahn",
        "cID": "112",
        "price": 160.45,
        "segment": [
            2018648192,
            1595915776
        ],
        "mode": "train",
        "stations_dep": [
            {
                "positionType": "station",
                "name": "Berlin Hbf",
                "countryCode": "DE",
                "cityName": "Berlin",
                "latitude": 52.525589,
                "longitude": 13.369548
            },
            {
                "positionType": "station",
                "name": "Hanover Hbf",
                "countryCode": "DE",
                "cityName": "Hanover",
                "latitude": 52.376763,
                "longitude": 9.741016
            }
        ],
        "stattions_ar": [
            {
                "positionType": "station",
                "name": "Hanover Hbf",
                "countryCode": "DE",
                "cityName": "Hanover",
                "latitude": 52.376763,
                "longitude": 9.741016
            },
            {
                "positionType": "station",
                "name": "Amsterdam Centraal",
                "countryCode": "NL",
                "cityName": "Amsterdam",
                "latitude": 52.3789,
                "longitude": 4.900349
            }
        ],
        "url": "https://www.omio.com/search-frontend/journey/train/-918013381/XC2D654A2721948679E1335BAEC87E211/5073427401320841533"
    },
    "-1685839930/7737555195494684989": {
        "departureTime": "2019-05-19T18:51:00.000+02:00",
        "ar_time": "2019-05-20T07:00:00.000+02:00",
        "stops": "4",
        "companyName": "Deutsche Bahn",
        "cID": "112",
        "price": 139.2,
        "segment": [
            1847695217,
            -1088561631,
            521202147,
            -1175142525,
            354610504
        ],
        "mode": "train",
        "stations_dep": [
            {
                "positionType": "station",
                "name": "Berlin Hbf",
                "countryCode": "DE",
                "cityName": "Berlin",
                "latitude": 52.525589,
                "longitude": 13.369548
            },
            {
                "positionType": "station",
                "name": "Hanover Hbf",
                "countryCode": "DE",
                "cityName": "Hanover",
                "latitude": 52.376763,
                "longitude": 9.741016
            },
            {
                "positionType": "station",
                "name": "M\u00fcnster(Westf) Hbf",
                "countryCode": "DE",
                "cityName": "M\u00fcnster",
                "latitude": 51.956562,
                "longitude": 7.635716
            },
            {
                "positionType": "station",
                "name": "Enschede",
                "countryCode": "NL",
                "cityName": "Enschede",
                "latitude": 52.222562,
                "longitude": 6.890222
            },
            {
                "positionType": "station",
                "name": "Amersfoort",
                "countryCode": "NL",
                "cityName": "Amersfoort",
                "latitude": 52.15389,
                "longitude": 5.3705554
            }
        ],
        "stattions_ar": [
            {
                "positionType": "station",
                "name": "Hanover Hbf",
                "countryCode": "DE",
                "cityName": "Hanover",
                "latitude": 52.376763,
                "longitude": 9.741016
            },
            {
                "positionType": "station",
                "name": "M\u00fcnster(Westf) Hbf",
                "countryCode": "DE",
                "cityName": "M\u00fcnster",
                "latitude": 51.956562,
                "longitude": 7.635716
            },
            {
                "positionType": "station",
                "name": "Enschede",
                "countryCode": "NL",
                "cityName": "Enschede",
                "latitude": 52.222562,
                "longitude": 6.890222
            },
            {
                "positionType": "station",
                "name": "Amersfoort",
                "countryCode": "NL",
                "cityName": "Amersfoort",
                "latitude": 52.15389,
                "longitude": 5.3705554
            },
            {
                "positionType": "station",
                "name": "Amsterdam Centraal",
                "countryCode": "NL",
                "cityName": "Amsterdam",
                "latitude": 52.3789,
                "longitude": 4.900349
            }
        ],
        "url": "https://www.omio.com/search-frontend/journey/train/-1685839930/XC2D654A2721948679E1335BAEC87E211/7737555195494684989"
    },
    "-1235779822/5641958341828764477": {
        "departureTime": "2019-05-19T23:52:00.000+02:00",
        "ar_time": "2019-05-20T09:28:00.000+02:00",
        "stops": "1",
        "companyName": "Deutsche Bahn",
        "cID": "112",
        "price": 115.98,
        "segment": [
            -904798173,
            -1488759898
        ],
        "mode": "train",
        "stations_dep": [
            {
                "positionType": "station",
                "name": "Berlin Hbf",
                "countryCode": "DE",
                "cityName": "Berlin",
                "latitude": 52.525589,
                "longitude": 13.369548
            },
            {
                "positionType": "station",
                "name": "Duisburg Hbf",
                "countryCode": "DE",
                "cityName": "Duisburg",
                "latitude": 51.429787,
                "longitude": 6.775906
            }
        ],
        "stattions_ar": [
            {
                "positionType": "station",
                "name": "Duisburg Hbf",
                "countryCode": "DE",
                "cityName": "Duisburg",
                "latitude": 51.429787,
                "longitude": 6.775906
            },
            {
                "positionType": "station",
                "name": "Amsterdam Centraal",
                "countryCode": "NL",
                "cityName": "Amsterdam",
                "latitude": 52.3789,
                "longitude": 4.900349
            }
        ],
        "url": "https://www.omio.com/search-frontend/journey/train/-1235779822/XC2D654A2721948679E1335BAEC87E211/5641958341828764477"
    },
    "-1928804714/3480211997436702525": {
        "departureTime": "2019-05-19T06:49:00.000+02:00",
        "ar_time": "2019-05-19T13:00:00.000+02:00",
        "stops": "1",
        "companyName": "Deutsche Bahn",
        "cID": "112",
        "price": 139.2,
        "segment": [
            -1181665696,
            -579110774
        ],
        "mode": "train",
        "stations_dep": [
            {
                "positionType": "station",
                "name": "Berlin Hbf",
                "countryCode": "DE",
                "cityName": "Berlin",
                "latitude": 52.525589,
                "longitude": 13.369548
            },
            {
                "positionType": "station",
                "name": "Hanover Hbf",
                "countryCode": "DE",
                "cityName": "Hanover",
                "latitude": 52.376763,
                "longitude": 9.741016
            }
        ],
        "stattions_ar": [
            {
                "positionType": "station",
                "name": "Hanover Hbf",
                "countryCode": "DE",
                "cityName": "Hanover",
                "latitude": 52.376763,
                "longitude": 9.741016
            },
            {
                "positionType": "station",
                "name": "Amsterdam Centraal",
                "countryCode": "NL",
                "cityName": "Amsterdam",
                "latitude": 52.3789,
                "longitude": 4.900349
            }
        ],
        "url": "https://www.omio.com/search-frontend/journey/train/-1928804714/XC2D654A2721948679E1335BAEC87E211/3480211997436702525"
    },
    "1400226543/3842190955961611069": {
        "departureTime": "2019-05-19T12:34:00.000+02:00",
        "ar_time": "2019-05-19T19:00:00.000+02:00",
        "stops": "0",
        "companyName": "Deutsche Bahn",
        "cID": "112",
        "price": 151.16,
        "segment": [
            -449083656
        ],
        "mode": "train",
        "stations_dep": [
            {
                "positionType": "station",
                "name": "Berlin Hbf",
                "countryCode": "DE",
                "cityName": "Berlin",
                "latitude": 52.525589,
                "longitude": 13.369548
            }
        ],
        "stattions_ar": [
            {
                "positionType": "station",
                "name": "Amsterdam Centraal",
                "countryCode": "NL",
                "cityName": "Amsterdam",
                "latitude": 52.3789,
                "longitude": 4.900349
            }
        ],
        "url": "https://www.omio.com/search-frontend/journey/train/1400226543/XC2D654A2721948679E1335BAEC87E211/3842190955961611069"
    },
    "-1410152892/6227130779120580669": {
        "departureTime": "2019-05-19T16:34:00.000+02:00",
        "ar_time": "2019-05-19T23:00:00.000+02:00",
        "stops": "0",
        "companyName": "Deutsche Bahn",
        "cID": "112",
        "price": 151.16,
        "segment": [
            1825599175
        ],
        "mode": "train",
        "stations_dep": [
            {
                "positionType": "station",
                "name": "Berlin Hbf",
                "countryCode": "DE",
                "cityName": "Berlin",
                "latitude": 52.525589,
                "longitude": 13.369548
            }
        ],
        "stattions_ar": [
            {
                "positionType": "station",
                "name": "Amsterdam Centraal",
                "countryCode": "NL",
                "cityName": "Amsterdam",
                "latitude": 52.3789,
                "longitude": 4.900349
            }
        ],
        "url": "https://www.omio.com/search-frontend/journey/train/-1410152892/XC2D654A2721948679E1335BAEC87E211/6227130779120580669"
    },
    "1466211721/5785804141050357565": {
        "departureTime": "2019-05-19T10:34:00.000+02:00",
        "ar_time": "2019-05-19T17:00:00.000+02:00",
        "stops": "0",
        "companyName": "Deutsche Bahn",
        "cID": "112",
        "price": 151.16,
        "segment": [
            545891358
        ],
        "mode": "train",
        "stations_dep": [
            {
                "positionType": "station",
                "name": "Berlin Hbf",
                "countryCode": "DE",
                "cityName": "Berlin",
                "latitude": 52.525589,
                "longitude": 13.369548
            }
        ],
        "stattions_ar": [
            {
                "positionType": "station",
                "name": "Amsterdam Centraal",
                "countryCode": "NL",
                "cityName": "Amsterdam",
                "latitude": 52.3789,
                "longitude": 4.900349
            }
        ],
        "url": "https://www.omio.com/search-frontend/journey/train/1466211721/XC2D654A2721948679E1335BAEC87E211/5785804141050357565"
    },
    "-1592138457/7369370421104506685": {
        "departureTime": "2019-05-19T17:49:00.000+02:00",
        "ar_time": "2019-05-20T02:16:00.000+02:00",
        "stops": "5",
        "companyName": "Deutsche Bahn with connection",
        "cID": "3367",
        "price": 168.11,
        "segment": [
            1896874947,
            -1069888731,
            1070810981,
            622320895,
            -1548809758,
            754859733
        ],
        "mode": "train",
        "stations_dep": [
            {
                "positionType": "station",
                "name": "Berlin Hbf",
                "countryCode": "DE",
                "cityName": "Berlin",
                "latitude": 52.525589,
                "longitude": 13.369548
            },
            {
                "positionType": "station",
                "name": "Duisburg Hbf",
                "countryCode": "DE",
                "cityName": "Duisburg",
                "latitude": 51.429787,
                "longitude": 6.775906
            },
            {
                "positionType": "station",
                "name": "Viersen",
                "countryCode": "DE",
                "cityName": "Viersen",
                "latitude": 51.255,
                "longitude": 6.404167
            },
            {
                "positionType": "station",
                "name": "Venlo",
                "countryCode": "NL",
                "cityName": "Venlo",
                "latitude": 51.36361,
                "longitude": 6.1727777
            },
            {
                "positionType": "station",
                "name": "Eindhoven",
                "countryCode": "NL",
                "cityName": "Eindhoven",
                "latitude": 51.443018,
                "longitude": 5.479572
            },
            {
                "positionType": "station",
                "name": "Rotterdam Centraal",
                "countryCode": "NL",
                "cityName": "Rotterdam",
                "latitude": 51.924804,
                "longitude": 4.468771
            }
        ],
        "stattions_ar": [
            {
                "positionType": "station",
                "name": "Duisburg Hbf",
                "countryCode": "DE",
                "cityName": "Duisburg",
                "latitude": 51.429787,
                "longitude": 6.775906
            },
            {
                "positionType": "station",
                "name": "Viersen",
                "countryCode": "DE",
                "cityName": "Viersen",
                "latitude": 51.255,
                "longitude": 6.404167
            },
            {
                "positionType": "station",
                "name": "Venlo",
                "countryCode": "NL",
                "cityName": "Venlo",
                "latitude": 51.36361,
                "longitude": 6.1727777
            },
            {
                "positionType": "station",
                "name": "Eindhoven",
                "countryCode": "NL",
                "cityName": "Eindhoven",
                "latitude": 51.443018,
                "longitude": 5.479572
            },
            {
                "positionType": "station",
                "name": "Rotterdam Centraal",
                "countryCode": "NL",
                "cityName": "Rotterdam",
                "latitude": 51.924804,
                "longitude": 4.468771
            },
            {
                "positionType": "station",
                "name": "Amsterdam Centraal",
                "countryCode": "NL",
                "cityName": "Amsterdam",
                "latitude": 52.3789,
                "longitude": 4.900349
            }
        ],
        "url": "https://www.omio.com/search-frontend/journey/train/-1592138457/XC2D654A2721948679E1335BAEC87E211/7369370421104506685"
    },
    "1841645616/6427593747903367485": {
        "departureTime": "2019-05-19T17:56:00.000+02:00",
        "ar_time": "2019-05-20T06:53:00.000+02:00",
        "stops": "4",
        "companyName": "Deutsche Bahn",
        "cID": "112",
        "price": 139.09,
        "segment": [
            -1196060345,
            1428980663,
            307646164,
            -1667953221,
            1493782617
        ],
        "mode": "train",
        "stations_dep": [
            {
                "positionType": "station",
                "name": "Berlin Gesundbrunnen",
                "countryCode": "DE",
                "cityName": "Berlin",
                "latitude": 52.548961,
                "longitude": 13.388515
            },
            {
                "positionType": "station",
                "name": "M\u00fcnster(Westf) Hbf",
                "countryCode": "DE",
                "cityName": "M\u00fcnster",
                "latitude": 51.956562,
                "longitude": 7.635716
            },
            {
                "positionType": "station",
                "name": "Enschede",
                "countryCode": "NL",
                "cityName": "Enschede",
                "latitude": 52.222562,
                "longitude": 6.890222
            },
            {
                "positionType": "station",
                "name": "Zwolle",
                "countryCode": "NL",
                "cityName": "Zwolle",
                "latitude": 52.504723,
                "longitude": 6.091944
            },
            {
                "positionType": "station",
                "name": "Almere Centrum",
                "countryCode": "NL",
                "cityName": "Almere",
                "latitude": 52.375244,
                "longitude": 5.218768
            }
        ],
        "stattions_ar": [
            {
                "positionType": "station",
                "name": "M\u00fcnster(Westf) Hbf",
                "countryCode": "DE",
                "cityName": "M\u00fcnster",
                "latitude": 51.956562,
                "longitude": 7.635716
            },
            {
                "positionType": "station",
                "name": "Enschede",
                "countryCode": "NL",
                "cityName": "Enschede",
                "latitude": 52.222562,
                "longitude": 6.890222
            },
            {
                "positionType": "station",
                "name": "Zwolle",
                "countryCode": "NL",
                "cityName": "Zwolle",
                "latitude": 52.504723,
                "longitude": 6.091944
            },
            {
                "positionType": "station",
                "name": "Almere Centrum",
                "countryCode": "NL",
                "cityName": "Almere",
                "latitude": 52.375244,
                "longitude": 5.218768
            },
            {
                "positionType": "station",
                "name": "Amsterdam Centraal",
                "countryCode": "NL",
                "cityName": "Amsterdam",
                "latitude": 52.3789,
                "longitude": 4.900349
            }
        ],
        "url": "https://www.omio.com/search-frontend/journey/train/1841645616/XC2D654A2721948679E1335BAEC87E211/6427593747903367485"
    },
    "-230319613/6224665549327123773": {
        "departureTime": "2019-05-19T14:50:00.000+02:00",
        "ar_time": "2019-05-19T21:00:00.000+02:00",
        "stops": "1",
        "companyName": "Deutsche Bahn",
        "cID": "112",
        "price": 160.45,
        "segment": [
            -496331571,
            -1419343703
        ],
        "mode": "train",
        "stations_dep": [
            {
                "positionType": "station",
                "name": "Berlin Hbf",
                "countryCode": "DE",
                "cityName": "Berlin",
                "latitude": 52.525589,
                "longitude": 13.369548
            },
            {
                "positionType": "station",
                "name": "Hanover Hbf",
                "countryCode": "DE",
                "cityName": "Hanover",
                "latitude": 52.376763,
                "longitude": 9.741016
            }
        ],
        "stattions_ar": [
            {
                "positionType": "station",
                "name": "Hanover Hbf",
                "countryCode": "DE",
                "cityName": "Hanover",
                "latitude": 52.376763,
                "longitude": 9.741016
            },
            {
                "positionType": "station",
                "name": "Amsterdam Centraal",
                "countryCode": "NL",
                "cityName": "Amsterdam",
                "latitude": 52.3789,
                "longitude": 4.900349
            }
        ],
        "url": "https://www.omio.com/search-frontend/journey/train/-230319613/XC2D654A2721948679E1335BAEC87E211/6224665549327123773"
    },
    "-1226269100/8234912501937563453": {
        "departureTime": "2019-05-19T18:34:00.000+02:00",
        "ar_time": "2019-05-20T07:00:00.000+02:00",
        "stops": "3",
        "companyName": "Deutsche Bahn",
        "cID": "112",
        "price": 139.09,
        "segment": [
            -21236866,
            521202147,
            -1175142525,
            354610504
        ],
        "mode": "train",
        "stations_dep": [
            {
                "positionType": "station",
                "name": "Berlin Hbf",
                "countryCode": "DE",
                "cityName": "Berlin",
                "latitude": 52.525589,
                "longitude": 13.369548
            },
            {
                "positionType": "station",
                "name": "M\u00fcnster(Westf) Hbf",
                "countryCode": "DE",
                "cityName": "M\u00fcnster",
                "latitude": 51.956562,
                "longitude": 7.635716
            },
            {
                "positionType": "station",
                "name": "Enschede",
                "countryCode": "NL",
                "cityName": "Enschede",
                "latitude": 52.222562,
                "longitude": 6.890222
            },
            {
                "positionType": "station",
                "name": "Amersfoort",
                "countryCode": "NL",
                "cityName": "Amersfoort",
                "latitude": 52.15389,
                "longitude": 5.3705554
            }
        ],
        "stattions_ar": [
            {
                "positionType": "station",
                "name": "M\u00fcnster(Westf) Hbf",
                "countryCode": "DE",
                "cityName": "M\u00fcnster",
                "latitude": 51.956562,
                "longitude": 7.635716
            },
            {
                "positionType": "station",
                "name": "Enschede",
                "countryCode": "NL",
                "cityName": "Enschede",
                "latitude": 52.222562,
                "longitude": 6.890222
            },
            {
                "positionType": "station",
                "name": "Amersfoort",
                "countryCode": "NL",
                "cityName": "Amersfoort",
                "latitude": 52.15389,
                "longitude": 5.3705554
            },
            {
                "positionType": "station",
                "name": "Amsterdam Centraal",
                "countryCode": "NL",
                "cityName": "Amsterdam",
                "latitude": 52.3789,
                "longitude": 4.900349
            }
        ],
        "url": "https://www.omio.com/search-frontend/journey/train/-1226269100/XC2D654A2721948679E1335BAEC87E211/8234912501937563453"
    },
    "1952082205/3698381436564624701": {
        "departureTime": "2019-05-19T00:20:00.000+02:00",
        "ar_time": "2019-05-19T10:05:00.000+02:00",
        "stops": "4",
        "companyName": "Deutsche Bahn with connection",
        "cID": "3367",
        "price": 139.2,
        "segment": [
            814558938,
            1510875382,
            1692811394,
            437399750,
            744725589
        ],
        "mode": "train",
        "stations_dep": [
            {
                "positionType": "station",
                "name": "Berlin Hbf",
                "countryCode": "DE",
                "cityName": "Berlin",
                "latitude": 52.525589,
                "longitude": 13.369548
            },
            {
                "positionType": "station",
                "name": "Duisburg Hbf",
                "countryCode": "DE",
                "cityName": "Duisburg",
                "latitude": 51.429787,
                "longitude": 6.775906
            },
            {
                "positionType": "station",
                "name": "Viersen",
                "countryCode": "DE",
                "cityName": "Viersen",
                "latitude": 51.255,
                "longitude": 6.404167
            },
            {
                "positionType": "station",
                "name": "Venlo",
                "countryCode": "NL",
                "cityName": "Venlo",
                "latitude": 51.36361,
                "longitude": 6.1727777
            },
            {
                "positionType": "station",
                "name": "Utrecht Centraal",
                "countryCode": "NL",
                "cityName": "Utrecht",
                "latitude": 52.089396,
                "longitude": 5.109864
            }
        ],
        "stattions_ar": [
            {
                "positionType": "station",
                "name": "Duisburg Hbf",
                "countryCode": "DE",
                "cityName": "Duisburg",
                "latitude": 51.429787,
                "longitude": 6.775906
            },
            {
                "positionType": "station",
                "name": "Viersen",
                "countryCode": "DE",
                "cityName": "Viersen",
                "latitude": 51.255,
                "longitude": 6.404167
            },
            {
                "positionType": "station",
                "name": "Venlo",
                "countryCode": "NL",
                "cityName": "Venlo",
                "latitude": 51.36361,
                "longitude": 6.1727777
            },
            {
                "positionType": "station",
                "name": "Utrecht Centraal",
                "countryCode": "NL",
                "cityName": "Utrecht",
                "latitude": 52.089396,
                "longitude": 5.109864
            },
            {
                "positionType": "station",
                "name": "Amsterdam Centraal",
                "countryCode": "NL",
                "cityName": "Amsterdam",
                "latitude": 52.3789,
                "longitude": 4.900349
            }
        ],
        "url": "https://www.omio.com/search-frontend/journey/train/1952082205/XC2D654A2721948679E1335BAEC87E211/3698381436564624701"
    },
    "2104449946/7435567613755813693": {
        "departureTime": "2019-05-19T08:34:00.000+02:00",
        "ar_time": "2019-05-19T15:00:00.000+02:00",
        "stops": "0",
        "companyName": "Deutsche Bahn",
        "cID": "112",
        "price": 151.16,
        "segment": [
            -1631726755
        ],
        "mode": "train",
        "stations_dep": [
            {
                "positionType": "station",
                "name": "Berlin Hbf",
                "countryCode": "DE",
                "cityName": "Berlin",
                "latitude": 52.525589,
                "longitude": 13.369548
            }
        ],
        "stattions_ar": [
            {
                "positionType": "station",
                "name": "Amsterdam Centraal",
                "countryCode": "NL",
                "cityName": "Amsterdam",
                "latitude": 52.3789,
                "longitude": 4.900349
            }
        ],
        "url": "https://www.omio.com/search-frontend/journey/train/2104449946/XC2D654A2721948679E1335BAEC87E211/7435567613755813693"
    },
    "-761999431/7011915994556299069": {
        "departureTime": "2019-05-19T20:34:00.000+02:00",
        "ar_time": "2019-05-20T08:35:00.000+02:00",
        "stops": "3",
        "companyName": "Deutsche Bahn with connection",
        "cID": "3367",
        "price": 81.15,
        "segment": [
            418300375,
            1345275262,
            2141446420,
            -1064246736
        ],
        "mode": "train",
        "stations_dep": [
            {
                "positionType": "station",
                "name": "Berlin Hbf",
                "countryCode": "DE",
                "cityName": "Berlin",
                "latitude": 52.525589,
                "longitude": 13.369548
            },
            {
                "positionType": "station",
                "name": "M\u00fcnster(Westf) Hbf",
                "countryCode": "DE",
                "cityName": "M\u00fcnster",
                "latitude": 51.956562,
                "longitude": 7.635716
            },
            {
                "positionType": "station",
                "name": "Duisburg Hbf",
                "countryCode": "DE",
                "cityName": "Duisburg",
                "latitude": 51.429787,
                "longitude": 6.775906
            },
            {
                "positionType": "station",
                "name": "Arnhem",
                "countryCode": "NL",
                "cityName": "Arnhem",
                "latitude": 51.98478,
                "longitude": 5.901004
            }
        ],
        "stattions_ar": [
            {
                "positionType": "station",
                "name": "M\u00fcnster(Westf) Hbf",
                "countryCode": "DE",
                "cityName": "M\u00fcnster",
                "latitude": 51.956562,
                "longitude": 7.635716
            },
            {
                "positionType": "station",
                "name": "Duisburg Hbf",
                "countryCode": "DE",
                "cityName": "Duisburg",
                "latitude": 51.429787,
                "longitude": 6.775906
            },
            {
                "positionType": "station",
                "name": "Arnhem",
                "countryCode": "NL",
                "cityName": "Arnhem",
                "latitude": 51.98478,
                "longitude": 5.901004
            },
            {
                "positionType": "station",
                "name": "Amsterdam Centraal",
                "countryCode": "NL",
                "cityName": "Amsterdam",
                "latitude": 52.3789,
                "longitude": 4.900349
            }
        ],
        "url": "https://www.omio.com/search-frontend/journey/train/-761999431/XC2D654A2721948679E1335BAEC87E211/7011915994556299069"
    },
    "1233456658/8173842332277880893": {
        "departureTime": "2019-05-19T15:00:00.000+02:00",
        "ar_time": "2019-05-19T22:50:00.000+02:00",
        "stops": "4",
        "companyName": "Deutsche Bahn with connection",
        "cID": "3367",
        "price": 135.6,
        "segment": [
            1077465531,
            736087734,
            -1523989567,
            -585643776,
            1380939922
        ],
        "mode": "train",
        "stations_dep": [
            {
                "positionType": "station",
                "name": "Berlin Hbf",
                "countryCode": "DE",
                "cityName": "Berlin",
                "latitude": 52.525589,
                "longitude": 13.369548
            },
            {
                "positionType": "station",
                "name": "Hanover Hbf",
                "countryCode": "DE",
                "cityName": "Hanover",
                "latitude": 52.376763,
                "longitude": 9.741016
            },
            {
                "positionType": "station",
                "name": "Rheine",
                "countryCode": "DE",
                "cityName": "Rheine",
                "latitude": 52.275555,
                "longitude": 7.434722
            },
            {
                "positionType": "station",
                "name": "Hengelo",
                "countryCode": "NL",
                "cityName": "Hengelo",
                "latitude": 52.261854,
                "longitude": 6.793723
            },
            {
                "positionType": "station",
                "name": "Zwolle",
                "countryCode": "NL",
                "cityName": "Zwolle",
                "latitude": 52.504723,
                "longitude": 6.091944
            }
        ],
        "stattions_ar": [
            {
                "positionType": "station",
                "name": "Hanover Hbf",
                "countryCode": "DE",
                "cityName": "Hanover",
                "latitude": 52.376763,
                "longitude": 9.741016
            },
            {
                "positionType": "station",
                "name": "Rheine",
                "countryCode": "DE",
                "cityName": "Rheine",
                "latitude": 52.275555,
                "longitude": 7.434722
            },
            {
                "positionType": "station",
                "name": "Hengelo",
                "countryCode": "NL",
                "cityName": "Hengelo",
                "latitude": 52.261854,
                "longitude": 6.793723
            },
            {
                "positionType": "station",
                "name": "Zwolle",
                "countryCode": "NL",
                "cityName": "Zwolle",
                "latitude": 52.504723,
                "longitude": 6.091944
            },
            {
                "positionType": "station",
                "name": "Amsterdam Centraal",
                "countryCode": "NL",
                "cityName": "Amsterdam",
                "latitude": 52.3789,
                "longitude": 4.900349
            }
        ],
        "url": "https://www.omio.com/search-frontend/journey/train/1233456658/XC2D654A2721948679E1335BAEC87E211/8173842332277880893"
    },
    "-1744210164/8103440650532244797": {
        "departureTime": "2019-05-19T11:01:00.000+02:00",
        "ar_time": "2019-05-19T18:50:00.000+02:00",
        "stops": "4",
        "companyName": "Deutsche Bahn with connection",
        "cID": "3367",
        "price": 144.89,
        "segment": [
            245609833,
            -1519329655,
            -1224491707,
            1590422581,
            -737961017
        ],
        "mode": "train",
        "stations_dep": [
            {
                "positionType": "station",
                "name": "Berlin Hbf",
                "countryCode": "DE",
                "cityName": "Berlin",
                "latitude": 52.525589,
                "longitude": 13.369548
            },
            {
                "positionType": "station",
                "name": "Hanover Hbf",
                "countryCode": "DE",
                "cityName": "Hanover",
                "latitude": 52.376763,
                "longitude": 9.741016
            },
            {
                "positionType": "station",
                "name": "Rheine",
                "countryCode": "DE",
                "cityName": "Rheine",
                "latitude": 52.275555,
                "longitude": 7.434722
            },
            {
                "positionType": "station",
                "name": "Hengelo",
                "countryCode": "NL",
                "cityName": "Hengelo",
                "latitude": 52.261854,
                "longitude": 6.793723
            },
            {
                "positionType": "station",
                "name": "Zwolle",
                "countryCode": "NL",
                "cityName": "Zwolle",
                "latitude": 52.504723,
                "longitude": 6.091944
            }
        ],
        "stattions_ar": [
            {
                "positionType": "station",
                "name": "Hanover Hbf",
                "countryCode": "DE",
                "cityName": "Hanover",
                "latitude": 52.376763,
                "longitude": 9.741016
            },
            {
                "positionType": "station",
                "name": "Rheine",
                "countryCode": "DE",
                "cityName": "Rheine",
                "latitude": 52.275555,
                "longitude": 7.434722
            },
            {
                "positionType": "station",
                "name": "Hengelo",
                "countryCode": "NL",
                "cityName": "Hengelo",
                "latitude": 52.261854,
                "longitude": 6.793723
            },
            {
                "positionType": "station",
                "name": "Zwolle",
                "countryCode": "NL",
                "cityName": "Zwolle",
                "latitude": 52.504723,
                "longitude": 6.091944
            },
            {
                "positionType": "station",
                "name": "Amsterdam Centraal",
                "countryCode": "NL",
                "cityName": "Amsterdam",
                "latitude": 52.3789,
                "longitude": 4.900349
            }
        ],
        "url": "https://www.omio.com/search-frontend/journey/train/-1744210164/XC2D654A2721948679E1335BAEC87E211/8103440650532244797"
    },
    "585816872/7454656217964370237": {
        "departureTime": "2019-05-19T12:48:00.000+02:00",
        "ar_time": "2019-05-19T19:00:00.000+02:00",
        "stops": "1",
        "companyName": "Deutsche Bahn",
        "cID": "112",
        "price": 160.45,
        "segment": [
            -1096267568,
            -394034252
        ],
        "mode": "train",
        "stations_dep": [
            {
                "positionType": "station",
                "name": "Berlin Hbf",
                "countryCode": "DE",
                "cityName": "Berlin",
                "latitude": 52.525589,
                "longitude": 13.369548
            },
            {
                "positionType": "station",
                "name": "Hanover Hbf",
                "countryCode": "DE",
                "cityName": "Hanover",
                "latitude": 52.376763,
                "longitude": 9.741016
            }
        ],
        "stattions_ar": [
            {
                "positionType": "station",
                "name": "Hanover Hbf",
                "countryCode": "DE",
                "cityName": "Hanover",
                "latitude": 52.376763,
                "longitude": 9.741016
            },
            {
                "positionType": "station",
                "name": "Amsterdam Centraal",
                "countryCode": "NL",
                "cityName": "Amsterdam",
                "latitude": 52.3789,
                "longitude": 4.900349
            }
        ],
        "url": "https://www.omio.com/search-frontend/journey/train/585816872/XC2D654A2721948679E1335BAEC87E211/7454656217964370237"
    },
    "1875942480/4121180099958683709": {
        "departureTime": "2019-05-19T10:52:00.000+02:00",
        "ar_time": "2019-05-19T17:00:00.000+02:00",
        "stops": "1",
        "companyName": "Deutsche Bahn",
        "cID": "112",
        "price": 160.45,
        "segment": [
            1634897934,
            600940762
        ],
        "mode": "train",
        "stations_dep": [
            {
                "positionType": "station",
                "name": "Berlin Hbf",
                "countryCode": "DE",
                "cityName": "Berlin",
                "latitude": 52.525589,
                "longitude": 13.369548
            },
            {
                "positionType": "station",
                "name": "Hanover Hbf",
                "countryCode": "DE",
                "cityName": "Hanover",
                "latitude": 52.376763,
                "longitude": 9.741016
            }
        ],
        "stattions_ar": [
            {
                "positionType": "station",
                "name": "Hanover Hbf",
                "countryCode": "DE",
                "cityName": "Hanover",
                "latitude": 52.376763,
                "longitude": 9.741016
            },
            {
                "positionType": "station",
                "name": "Amsterdam Centraal",
                "countryCode": "NL",
                "cityName": "Amsterdam",
                "latitude": 52.3789,
                "longitude": 4.900349
            }
        ],
        "url": "https://www.omio.com/search-frontend/journey/train/1875942480/XC2D654A2721948679E1335BAEC87E211/4121180099958683709"
    },
    "-331912983/8030318728080077885": {
        "departureTime": "2019-05-19T16:51:00.000+02:00",
        "ar_time": "2019-05-19T23:00:00.000+02:00",
        "stops": "1",
        "companyName": "Deutsche Bahn",
        "cID": "112",
        "price": 160.45,
        "segment": [
            -1421962628,
            1880648579
        ],
        "mode": "train",
        "stations_dep": [
            {
                "positionType": "station",
                "name": "Berlin Hbf",
                "countryCode": "DE",
                "cityName": "Berlin",
                "latitude": 52.525589,
                "longitude": 13.369548
            },
            {
                "positionType": "station",
                "name": "Hanover Hbf",
                "countryCode": "DE",
                "cityName": "Hanover",
                "latitude": 52.376763,
                "longitude": 9.741016
            }
        ],
        "stattions_ar": [
            {
                "positionType": "station",
                "name": "Hanover Hbf",
                "countryCode": "DE",
                "cityName": "Hanover",
                "latitude": 52.376763,
                "longitude": 9.741016
            },
            {
                "positionType": "station",
                "name": "Amsterdam Centraal",
                "countryCode": "NL",
                "cityName": "Amsterdam",
                "latitude": 52.3789,
                "longitude": 4.900349
            }
        ],
        "url": "https://www.omio.com/search-frontend/journey/train/-331912983/XC2D654A2721948679E1335BAEC87E211/8030318728080077885"
    },
    "669047769/6507191525540784957": {
        "departureTime": "2019-05-19T21:20:00.000+02:00",
        "ar_time": "2019-05-20T08:05:00.000+02:00",
        "stops": "4",
        "companyName": "Deutsche Bahn with connection",
        "cID": "3367",
        "price": 115.98,
        "segment": [
            -624003815,
            1228825099,
            2044824064,
            352855135,
            -85297156
        ],
        "mode": "train",
        "stations_dep": [
            {
                "positionType": "station",
                "name": "Berlin Hbf",
                "countryCode": "DE",
                "cityName": "Berlin",
                "latitude": 52.525589,
                "longitude": 13.369548
            },
            {
                "positionType": "station",
                "name": "D\u00fcsseldorf Hbf",
                "countryCode": "DE",
                "cityName": "D\u00fcsseldorf",
                "latitude": 51.21996,
                "longitude": 6.794316
            },
            {
                "positionType": "station",
                "name": "M\u00f6nchengladbach Hbf",
                "countryCode": "DE",
                "cityName": "M\u00f6nchengladbach",
                "latitude": 51.196579,
                "longitude": 6.44611
            },
            {
                "positionType": "station",
                "name": "Venlo",
                "countryCode": "NL",
                "cityName": "Venlo",
                "latitude": 51.36361,
                "longitude": 6.1727777
            },
            {
                "positionType": "station",
                "name": "Utrecht Centraal",
                "countryCode": "NL",
                "cityName": "Utrecht",
                "latitude": 52.089396,
                "longitude": 5.109864
            }
        ],
        "stattions_ar": [
            {
                "positionType": "station",
                "name": "D\u00fcsseldorf Hbf",
                "countryCode": "DE",
                "cityName": "D\u00fcsseldorf",
                "latitude": 51.21996,
                "longitude": 6.794316
            },
            {
                "positionType": "station",
                "name": "M\u00f6nchengladbach Hbf",
                "countryCode": "DE",
                "cityName": "M\u00f6nchengladbach",
                "latitude": 51.196579,
                "longitude": 6.44611
            },
            {
                "positionType": "station",
                "name": "Venlo",
                "countryCode": "NL",
                "cityName": "Venlo",
                "latitude": 51.36361,
                "longitude": 6.1727777
            },
            {
                "positionType": "station",
                "name": "Utrecht Centraal",
                "countryCode": "NL",
                "cityName": "Utrecht",
                "latitude": 52.089396,
                "longitude": 5.109864
            },
            {
                "positionType": "station",
                "name": "Amsterdam Centraal",
                "countryCode": "NL",
                "cityName": "Amsterdam",
                "latitude": 52.3789,
                "longitude": 4.900349
            }
        ],
        "url": "https://www.omio.com/search-frontend/journey/train/669047769/XC2D654A2721948679E1335BAEC87E211/6507191525540784957"
    },
    "-2031817489/4713419913749542973": {
        "departureTime": "2019-05-19T14:34:00.000+02:00",
        "ar_time": "2019-05-19T21:00:00.000+02:00",
        "stops": "0",
        "companyName": "Deutsche Bahn",
        "cID": "112",
        "price": 151.16,
        "segment": [
            -1474393107
        ],
        "mode": "train",
        "stations_dep": [
            {
                "positionType": "station",
                "name": "Berlin Hbf",
                "countryCode": "DE",
                "cityName": "Berlin",
                "latitude": 52.525589,
                "longitude": 13.369548
            }
        ],
        "stattions_ar": [
            {
                "positionType": "station",
                "name": "Amsterdam Centraal",
                "countryCode": "NL",
                "cityName": "Amsterdam",
                "latitude": 52.3789,
                "longitude": 4.900349
            }
        ],
        "url": "https://www.omio.com/search-frontend/journey/train/-2031817489/XC2D654A2721948679E1335BAEC87E211/4713419913749542973"
    },
    "-161805663/6504119627156832573": {
        "departureTime": "2019-05-19T13:15:00.000+02:00",
        "ar_time": "2019-05-20T15:10:00.000+02:00",
        "stops": "1",
        "companyName": "RegioJet",
        "cID": "1053",
        "price": 67.22,
        "segment": [
            -1758164136,
            1730518260
        ],
        "mode": "bus",
        "stations_dep": [
            {
                "positionType": "busstation",
                "name": "Berlin, Bahnhof S\u00fcdkreuz",
                "countryCode": "DE",
                "cityName": "Berlin",
                "latitude": 52.476101,
                "longitude": 13.364254
            },
            {
                "positionType": "busstation",
                "name": "Praha, \u00daAN Florenc",
                "countryCode": "CZ",
                "cityName": "Prague",
                "latitude": 50.089449,
                "longitude": 14.440792
            }
        ],
        "stattions_ar": [
            {
                "positionType": "busstation",
                "name": "Praha, \u00daAN Florenc",
                "countryCode": "CZ",
                "cityName": "Prague",
                "latitude": 50.089449,
                "longitude": 14.440792
            },
            {
                "positionType": "busstation",
                "name": "Amsterdam, Sloterdijk",
                "countryCode": "NL",
                "cityName": "Amsterdam",
                "latitude": 52.389,
                "longitude": 4.838254
            }
        ],
        "url": "https://www.omio.com/search-frontend/journey/bus/-161805663/XC2D654A2721948679E1335BAEC87E211/6504119627156832573"
    },
    "-1229938996/5924041340770932029": {
        "departureTime": "2019-05-19T19:30:00.000+02:00",
        "ar_time": "2019-05-20T17:30:00.000+02:00",
        "stops": "1",
        "companyName": "Eurolines France",
        "cID": "2514",
        "price": 60.37,
        "segment": [
            -497445535,
            1554207414
        ],
        "mode": "bus",
        "stations_dep": [
            {
                "positionType": "busstation",
                "name": "Berlin, ZOB",
                "countryCode": "DE",
                "cityName": "Berlin",
                "latitude": 52.506643,
                "longitude": 13.280121
            },
            {
                "positionType": "busstation",
                "name": "Bruxelles, Gare du Nord",
                "countryCode": "BE",
                "cityName": "Brussels",
                "latitude": 50.86028,
                "longitude": 4.360278
            }
        ],
        "stattions_ar": [
            {
                "positionType": "busstation",
                "name": "Bruxelles, Gare du Nord",
                "countryCode": "BE",
                "cityName": "Brussels",
                "latitude": 50.86028,
                "longitude": 4.360278
            },
            {
                "positionType": "busstation",
                "name": "Amsterdam, Station Duivendrecht",
                "countryCode": "NL",
                "cityName": "Amsterdam",
                "latitude": 52.323401,
                "longitude": 4.936678
            }
        ],
        "url": "https://www.omio.com/search-frontend/journey/bus/-1229938996/XC2D654A2721948679E1335BAEC87E211/5924041340770932029"
    },
    "-850972879/6225226257711192381": {
        "departureTime": "2019-05-19T21:00:00.000+02:00",
        "ar_time": "2019-05-20T05:55:00.000+02:00",
        "stops": "0",
        "companyName": "Eurolines France",
        "cID": "2514",
        "price": 40.52,
        "segment": [
            -341807834
        ],
        "mode": "bus",
        "stations_dep": [
            {
                "positionType": "busstation",
                "name": "Berlin, ZOB",
                "countryCode": "DE",
                "cityName": "Berlin",
                "latitude": 52.506643,
                "longitude": 13.280121
            }
        ],
        "stattions_ar": [
            {
                "positionType": "busstation",
                "name": "Amsterdam, Station Duivendrecht",
                "countryCode": "NL",
                "cityName": "Amsterdam",
                "latitude": 52.323401,
                "longitude": 4.936678
            }
        ],
        "url": "https://www.omio.com/search-frontend/journey/bus/-850972879/XC2D654A2721948679E1335BAEC87E211/6225226257711192381"
    },
    "453551027/3263820299967547709": {
        "departureTime": "2019-05-19T19:30:00.000+02:00",
        "ar_time": "2019-05-20T19:30:00.000+02:00",
        "stops": "1",
        "companyName": "Eurolines France",
        "cID": "2514",
        "price": 69.66,
        "segment": [
            1004788057,
            144000071
        ],
        "mode": "bus",
        "stations_dep": [
            {
                "positionType": "busstation",
                "name": "Berlin, ZOB",
                "countryCode": "DE",
                "cityName": "Berlin",
                "latitude": 52.506643,
                "longitude": 13.280121
            },
            {
                "positionType": "busstation",
                "name": "Paris, Gare Routi\u00e8re Galli\u00e9ni",
                "countryCode": "FR",
                "cityName": "Paris",
                "latitude": 48.86521,
                "longitude": 2.41425
            }
        ],
        "stattions_ar": [
            {
                "positionType": "busstation",
                "name": "Paris, Gare Routi\u00e8re Galli\u00e9ni",
                "countryCode": "FR",
                "cityName": "Paris",
                "latitude": 48.86521,
                "longitude": 2.41425
            },
            {
                "positionType": "busstation",
                "name": "Amsterdam, Station Duivendrecht",
                "countryCode": "NL",
                "cityName": "Amsterdam",
                "latitude": 52.323401,
                "longitude": 4.936678
            }
        ],
        "url": "https://www.omio.com/search-frontend/journey/bus/453551027/XC2D654A2721948679E1335BAEC87E211/3263820299967547709"
    },
    "226844269/8171312270623795005": {
        "departureTime": "2019-05-19T19:30:00.000+02:00",
        "ar_time": "2019-05-20T14:30:00.000+02:00",
        "stops": "1",
        "companyName": "Eurolines France",
        "cID": "2514",
        "price": 60.37,
        "segment": [
            -497445535,
            1665433683
        ],
        "mode": "bus",
        "stations_dep": [
            {
                "positionType": "busstation",
                "name": "Berlin, ZOB",
                "countryCode": "DE",
                "cityName": "Berlin",
                "latitude": 52.506643,
                "longitude": 13.280121
            },
            {
                "positionType": "busstation",
                "name": "Bruxelles, Gare du Nord",
                "countryCode": "BE",
                "cityName": "Brussels",
                "latitude": 50.86028,
                "longitude": 4.360278
            }
        ],
        "stattions_ar": [
            {
                "positionType": "busstation",
                "name": "Bruxelles, Gare du Nord",
                "countryCode": "BE",
                "cityName": "Brussels",
                "latitude": 50.86028,
                "longitude": 4.360278
            },
            {
                "positionType": "busstation",
                "name": "Amsterdam, Station Duivendrecht",
                "countryCode": "NL",
                "cityName": "Amsterdam",
                "latitude": 52.323401,
                "longitude": 4.936678
            }
        ],
        "url": "https://www.omio.com/search-frontend/journey/bus/226844269/XC2D654A2721948679E1335BAEC87E211/8171312270623795005"
    },
    "563174231/5644759056801953597": {
        "departureTime": "2019-05-19T19:30:00.000+02:00",
        "ar_time": "2019-05-20T10:45:00.000+02:00",
        "stops": "1",
        "companyName": "Eurolines France",
        "cID": "2514",
        "price": 62.58,
        "segment": [
            -497445535,
            -525885072
        ],
        "mode": "bus",
        "stations_dep": [
            {
                "positionType": "busstation",
                "name": "Berlin, ZOB",
                "countryCode": "DE",
                "cityName": "Berlin",
                "latitude": 52.506643,
                "longitude": 13.280121
            },
            {
                "positionType": "busstation",
                "name": "Bruxelles, Gare du Nord",
                "countryCode": "BE",
                "cityName": "Brussels",
                "latitude": 50.86028,
                "longitude": 4.360278
            }
        ],
        "stattions_ar": [
            {
                "positionType": "busstation",
                "name": "Bruxelles, Gare du Nord",
                "countryCode": "BE",
                "cityName": "Brussels",
                "latitude": 50.86028,
                "longitude": 4.360278
            },
            {
                "positionType": "busstation",
                "name": "Amsterdam, Station Duivendrecht",
                "countryCode": "NL",
                "cityName": "Amsterdam",
                "latitude": 52.323401,
                "longitude": 4.936678
            }
        ],
        "url": "https://www.omio.com/search-frontend/journey/bus/563174231/XC2D654A2721948679E1335BAEC87E211/5644759056801953597"
    },
    "1039571376/8674277473334145085": {
        "departureTime": "2019-05-19T19:30:00.000+02:00",
        "ar_time": "2019-05-20T15:45:00.000+02:00",
        "stops": "1",
        "companyName": "Eurolines France",
        "cID": "2514",
        "price": 58.05,
        "segment": [
            -497445535,
            -350525209
        ],
        "mode": "bus",
        "stations_dep": [
            {
                "positionType": "busstation",
                "name": "Berlin, ZOB",
                "countryCode": "DE",
                "cityName": "Berlin",
                "latitude": 52.506643,
                "longitude": 13.280121
            },
            {
                "positionType": "busstation",
                "name": "Bruxelles, Gare du Nord",
                "countryCode": "BE",
                "cityName": "Brussels",
                "latitude": 50.86028,
                "longitude": 4.360278
            }
        ],
        "stattions_ar": [
            {
                "positionType": "busstation",
                "name": "Bruxelles, Gare du Nord",
                "countryCode": "BE",
                "cityName": "Brussels",
                "latitude": 50.86028,
                "longitude": 4.360278
            },
            {
                "positionType": "busstation",
                "name": "Amsterdam, Station Duivendrecht",
                "countryCode": "NL",
                "cityName": "Amsterdam",
                "latitude": 52.323401,
                "longitude": 4.936678
            }
        ],
        "url": "https://www.omio.com/search-frontend/journey/bus/1039571376/XC2D654A2721948679E1335BAEC87E211/8674277473334145085"
    },
    "-338628774/4068279104240318269": {
        "departureTime": "2019-05-19T19:30:00.000+02:00",
        "ar_time": "2019-05-20T21:45:00.000+02:00",
        "stops": "1",
        "companyName": "Eurolines France",
        "cID": "2514",
        "price": 69.66,
        "segment": [
            1004788057,
            -2123039322
        ],
        "mode": "bus",
        "stations_dep": [
            {
                "positionType": "busstation",
                "name": "Berlin, ZOB",
                "countryCode": "DE",
                "cityName": "Berlin",
                "latitude": 52.506643,
                "longitude": 13.280121
            },
            {
                "positionType": "busstation",
                "name": "Paris, Gare Routi\u00e8re Galli\u00e9ni",
                "countryCode": "FR",
                "cityName": "Paris",
                "latitude": 48.86521,
                "longitude": 2.41425
            }
        ],
        "stattions_ar": [
            {
                "positionType": "busstation",
                "name": "Paris, Gare Routi\u00e8re Galli\u00e9ni",
                "countryCode": "FR",
                "cityName": "Paris",
                "latitude": 48.86521,
                "longitude": 2.41425
            },
            {
                "positionType": "busstation",
                "name": "Amsterdam, Station Duivendrecht",
                "countryCode": "NL",
                "cityName": "Amsterdam",
                "latitude": 52.323401,
                "longitude": 4.936678
            }
        ],
        "url": "https://www.omio.com/search-frontend/journey/bus/-338628774/XC2D654A2721948679E1335BAEC87E211/4068279104240318269"
    },
    "1010223244/6291376290799249213": {
        "departureTime": "2019-05-19T19:30:00.000+02:00",
        "ar_time": "2019-05-20T15:30:00.000+02:00",
        "stops": "1",
        "companyName": "Eurolines France",
        "cID": "2514",
        "price": 58.05,
        "segment": [
            -497445535,
            1663989186
        ],
        "mode": "bus",
        "stations_dep": [
            {
                "positionType": "busstation",
                "name": "Berlin, ZOB",
                "countryCode": "DE",
                "cityName": "Berlin",
                "latitude": 52.506643,
                "longitude": 13.280121
            },
            {
                "positionType": "busstation",
                "name": "Bruxelles, Gare du Nord",
                "countryCode": "BE",
                "cityName": "Brussels",
                "latitude": 50.86028,
                "longitude": 4.360278
            }
        ],
        "stattions_ar": [
            {
                "positionType": "busstation",
                "name": "Bruxelles, Gare du Nord",
                "countryCode": "BE",
                "cityName": "Brussels",
                "latitude": 50.86028,
                "longitude": 4.360278
            },
            {
                "positionType": "busstation",
                "name": "Amsterdam, Station Duivendrecht",
                "countryCode": "NL",
                "cityName": "Amsterdam",
                "latitude": 52.323401,
                "longitude": 4.936678
            }
        ],
        "url": "https://www.omio.com/search-frontend/journey/bus/1010223244/XC2D654A2721948679E1335BAEC87E211/6291376290799249213"
    },
    "699029626/4851594316197610813": {
        "departureTime": "2019-05-19T19:30:00.000+02:00",
        "ar_time": "2019-05-20T21:30:00.000+02:00",
        "stops": "1",
        "companyName": "Eurolines France",
        "cID": "2514",
        "price": 73.14,
        "segment": [
            1004788057,
            3883862
        ],
        "mode": "bus",
        "stations_dep": [
            {
                "positionType": "busstation",
                "name": "Berlin, ZOB",
                "countryCode": "DE",
                "cityName": "Berlin",
                "latitude": 52.506643,
                "longitude": 13.280121
            },
            {
                "positionType": "busstation",
                "name": "Paris, Gare Routi\u00e8re Galli\u00e9ni",
                "countryCode": "FR",
                "cityName": "Paris",
                "latitude": 48.86521,
                "longitude": 2.41425
            }
        ],
        "stattions_ar": [
            {
                "positionType": "busstation",
                "name": "Paris, Gare Routi\u00e8re Galli\u00e9ni",
                "countryCode": "FR",
                "cityName": "Paris",
                "latitude": 48.86521,
                "longitude": 2.41425
            },
            {
                "positionType": "busstation",
                "name": "Amsterdam, Station Duivendrecht",
                "countryCode": "NL",
                "cityName": "Amsterdam",
                "latitude": 52.323401,
                "longitude": 4.936678
            }
        ],
        "url": "https://www.omio.com/search-frontend/journey/bus/699029626/XC2D654A2721948679E1335BAEC87E211/4851594316197610813"
    },
    "1295211604/7595128861136938813": {
        "departureTime": "2019-05-19T19:30:00.000+02:00",
        "ar_time": "2019-05-20T13:00:00.000+02:00",
        "stops": "2",
        "companyName": "Eurolines France",
        "cID": "2514",
        "price": 67.22,
        "segment": [
            -497445535,
            -1743888614,
            790481027
        ],
        "mode": "bus",
        "stations_dep": [
            {
                "positionType": "busstation",
                "name": "Berlin, ZOB",
                "countryCode": "DE",
                "cityName": "Berlin",
                "latitude": 52.506643,
                "longitude": 13.280121
            },
            {
                "positionType": "busstation",
                "name": "Bruxelles, Gare du Nord",
                "countryCode": "BE",
                "cityName": "Brussels",
                "latitude": 50.86028,
                "longitude": 4.360278
            },
            {
                "positionType": "busstation",
                "name": "Rotterdam, Conradstraat",
                "countryCode": "NL",
                "cityName": "Rotterdam",
                "latitude": 51.92278,
                "longitude": 4.466114
            }
        ],
        "stattions_ar": [
            {
                "positionType": "busstation",
                "name": "Bruxelles, Gare du Nord",
                "countryCode": "BE",
                "cityName": "Brussels",
                "latitude": 50.86028,
                "longitude": 4.360278
            },
            {
                "positionType": "busstation",
                "name": "Rotterdam, Conradstraat",
                "countryCode": "NL",
                "cityName": "Rotterdam",
                "latitude": 51.92278,
                "longitude": 4.466114
            },
            {
                "positionType": "busstation",
                "name": "Amsterdam, Station Duivendrecht",
                "countryCode": "NL",
                "cityName": "Amsterdam",
                "latitude": 52.323401,
                "longitude": 4.936678
            }
        ],
        "url": "https://www.omio.com/search-frontend/journey/bus/1295211604/XC2D654A2721948679E1335BAEC87E211/7595128861136938813"
    },
    "508264249/5073108516824441661": {
        "departureTime": "2019-05-19T17:00:00.000+02:00",
        "ar_time": "2019-05-19T22:10:00.000+02:00",
        "stops": "1",
        "companyName": "Austrian Airlines",
        "cID": "81",
        "price": 1078.57,
        "segment": [
            2027467811,
            -184729170
        ],
        "mode": "flight",
        "stations_dep": [
            {
                "positionType": "airport",
                "name": "Berlin Tegel Airport",
                "countryCode": "DE",
                "cityName": "Berlin",
                "iataCode": "TXL",
                "latitude": 52.5548,
                "longitude": 13.28903
            },
            {
                "positionType": "airport",
                "name": "Vienna International Airport",
                "countryCode": "AT",
                "cityName": "Schwechat",
                "iataCode": "VIE",
                "latitude": 48.121095,
                "longitude": 16.5612678
            }
        ],
        "stattions_ar": [
            {
                "positionType": "airport",
                "name": "Vienna International Airport",
                "countryCode": "AT",
                "cityName": "Schwechat",
                "iataCode": "VIE",
                "latitude": 48.121095,
                "longitude": 16.5612678
            },
            {
                "positionType": "airport",
                "name": "Amsterdam Airport Schiphol",
                "countryCode": "NL",
                "cityName": "Rozenburg",
                "iataCode": "AMS",
                "latitude": 52.30907,
                "longitude": 4.763385
            }
        ],
        "url": "https://www.omio.com/search-frontend/journey/flight/508264249/XC2D654A2721948679E1335BAEC87E211/5073108516824441661"
    },
    "719264541/7370257747844425533": {
        "departureTime": "2019-05-19T08:15:00.000+02:00",
        "ar_time": "2019-05-19T13:50:00.000+02:00",
        "stops": "1",
        "companyName": "Lufthansa",
        "cID": "35",
        "price": 402.92,
        "segment": [
            -1366771516,
            -162105258
        ],
        "mode": "flight",
        "stations_dep": [
            {
                "positionType": "airport",
                "name": "Berlin Tegel Airport",
                "countryCode": "DE",
                "cityName": "Berlin",
                "iataCode": "TXL",
                "latitude": 52.5548,
                "longitude": 13.28903
            },
            {
                "positionType": "airport",
                "name": "Frankfurt am Main Airport",
                "countryCode": "DE",
                "cityName": "Frankfurt am Main",
                "iataCode": "FRA",
                "latitude": 50.05009,
                "longitude": 8.57155
            }
        ],
        "stattions_ar": [
            {
                "positionType": "airport",
                "name": "Frankfurt am Main Airport",
                "countryCode": "DE",
                "cityName": "Frankfurt am Main",
                "iataCode": "FRA",
                "latitude": 50.05009,
                "longitude": 8.57155
            },
            {
                "positionType": "airport",
                "name": "Amsterdam Airport Schiphol",
                "countryCode": "NL",
                "cityName": "Rozenburg",
                "iataCode": "AMS",
                "latitude": 52.30907,
                "longitude": 4.763385
            }
        ],
        "url": "https://www.omio.com/search-frontend/journey/flight/719264541/XC2D654A2721948679E1335BAEC87E211/7370257747844425533"
    },
    "-1129189907/7590912095950554429": {
        "departureTime": "2019-05-19T18:50:00.000+02:00",
        "ar_time": "2019-05-19T20:20:00.000+02:00",
        "stops": "0",
        "companyName": "KLM",
        "cID": "37",
        "price": 590.62,
        "segment": [
            760122605
        ],
        "mode": "flight",
        "stations_dep": [
            {
                "positionType": "airport",
                "name": "Berlin Tegel Airport",
                "countryCode": "DE",
                "cityName": "Berlin",
                "iataCode": "TXL",
                "latitude": 52.5548,
                "longitude": 13.28903
            }
        ],
        "stattions_ar": [
            {
                "positionType": "airport",
                "name": "Amsterdam Airport Schiphol",
                "countryCode": "NL",
                "cityName": "Rozenburg",
                "iataCode": "AMS",
                "latitude": 52.30907,
                "longitude": 4.763385
            }
        ],
        "url": "https://www.omio.com/search-frontend/journey/flight/-1129189907/XC2D654A2721948679E1335BAEC87E211/7590912095950554429"
    },
    "-537620756/6446750529349759037": {
        "departureTime": "2019-05-19T06:15:00.000+02:00",
        "ar_time": "2019-05-19T13:05:00.000+02:00",
        "stops": "1",
        "companyName": "JOON",
        "cID": "3676",
        "price": 212.63,
        "segment": [
            254568768,
            1270825201
        ],
        "mode": "flight",
        "stations_dep": [
            {
                "positionType": "airport",
                "name": "Berlin Tegel Airport",
                "countryCode": "DE",
                "cityName": "Berlin",
                "iataCode": "TXL",
                "latitude": 52.5548,
                "longitude": 13.28903
            },
            {
                "positionType": "airport",
                "name": "Paris Charles de Gaulle Airport",
                "countryCode": "FR",
                "cityName": "Roissy-en-France",
                "iataCode": "CDG",
                "latitude": 49.0029701,
                "longitude": 2.577134
            }
        ],
        "stattions_ar": [
            {
                "positionType": "airport",
                "name": "Paris Charles de Gaulle Airport",
                "countryCode": "FR",
                "cityName": "Roissy-en-France",
                "iataCode": "CDG",
                "latitude": 49.0029701,
                "longitude": 2.577134
            },
            {
                "positionType": "airport",
                "name": "Amsterdam Airport Schiphol",
                "countryCode": "NL",
                "cityName": "Rozenburg",
                "iataCode": "AMS",
                "latitude": 52.30907,
                "longitude": 4.763385
            }
        ],
        "url": "https://www.omio.com/search-frontend/journey/flight/-537620756/XC2D654A2721948679E1335BAEC87E211/6446750529349759037"
    },
    "-1833302037/7003436453908139325": {
        "departureTime": "2019-05-19T18:15:00.000+02:00",
        "ar_time": "2019-05-19T22:10:00.000+02:00",
        "stops": "1",
        "companyName": "Lufthansa",
        "cID": "35",
        "price": 564.3,
        "segment": [
            -494208291,
            -1557792555
        ],
        "mode": "flight",
        "stations_dep": [
            {
                "positionType": "airport",
                "name": "Berlin Tegel Airport",
                "countryCode": "DE",
                "cityName": "Berlin",
                "iataCode": "TXL",
                "latitude": 52.5548,
                "longitude": 13.28903
            },
            {
                "positionType": "airport",
                "name": "Frankfurt am Main Airport",
                "countryCode": "DE",
                "cityName": "Frankfurt am Main",
                "iataCode": "FRA",
                "latitude": 50.05009,
                "longitude": 8.57155
            }
        ],
        "stattions_ar": [
            {
                "positionType": "airport",
                "name": "Frankfurt am Main Airport",
                "countryCode": "DE",
                "cityName": "Frankfurt am Main",
                "iataCode": "FRA",
                "latitude": 50.05009,
                "longitude": 8.57155
            },
            {
                "positionType": "airport",
                "name": "Amsterdam Airport Schiphol",
                "countryCode": "NL",
                "cityName": "Rozenburg",
                "iataCode": "AMS",
                "latitude": 52.30907,
                "longitude": 4.763385
            }
        ],
        "url": "https://www.omio.com/search-frontend/journey/flight/-1833302037/XC2D654A2721948679E1335BAEC87E211/7003436453908139325"
    },
    "1415863746/6865025389852186941": {
        "departureTime": "2019-05-19T12:25:00.000+02:00",
        "ar_time": "2019-05-20T13:00:00.000+02:00",
        "stops": "1",
        "companyName": "British Airways",
        "cID": "31",
        "price": 950.9,
        "segment": [
            -1185189700,
            889322407
        ],
        "mode": "flight",
        "stations_dep": [
            {
                "positionType": "airport",
                "name": "Berlin Tegel Airport",
                "countryCode": "DE",
                "cityName": "Berlin",
                "iataCode": "TXL",
                "latitude": 52.5548,
                "longitude": 13.28903
            },
            {
                "positionType": "airport",
                "name": "London City Airport",
                "countryCode": "GB",
                "cityName": "London",
                "iataCode": "LCY",
                "latitude": 51.50341033935547,
                "longitude": 0.0487699992954731
            }
        ],
        "stattions_ar": [
            {
                "positionType": "airport",
                "name": "London Heathrow Airport",
                "countryCode": "GB",
                "cityName": "London",
                "iataCode": "LHR",
                "latitude": 51.4708554,
                "longitude": -0.452638
            },
            {
                "positionType": "airport",
                "name": "Amsterdam Airport Schiphol",
                "countryCode": "NL",
                "cityName": "Rozenburg",
                "iataCode": "AMS",
                "latitude": 52.30907,
                "longitude": 4.763385
            }
        ],
        "url": "https://www.omio.com/search-frontend/journey/flight/1415863746/XC2D654A2721948679E1335BAEC87E211/6865025389852186941"
    },
    "-1437797164/7308889665829099837": {
        "departureTime": "2019-05-19T14:50:00.000+02:00",
        "ar_time": "2019-05-19T19:15:00.000+02:00",
        "stops": "1",
        "companyName": "JOON",
        "cID": "3676",
        "price": 975.4,
        "segment": [
            -1367383185,
            -631341876
        ],
        "mode": "flight",
        "stations_dep": [
            {
                "positionType": "airport",
                "name": "Berlin Tegel Airport",
                "countryCode": "DE",
                "cityName": "Berlin",
                "iataCode": "TXL",
                "latitude": 52.5548,
                "longitude": 13.28903
            },
            {
                "positionType": "airport",
                "name": "Paris Charles de Gaulle Airport",
                "countryCode": "FR",
                "cityName": "Roissy-en-France",
                "iataCode": "CDG",
                "latitude": 49.0029701,
                "longitude": 2.577134
            }
        ],
        "stattions_ar": [
            {
                "positionType": "airport",
                "name": "Paris Charles de Gaulle Airport",
                "countryCode": "FR",
                "cityName": "Roissy-en-France",
                "iataCode": "CDG",
                "latitude": 49.0029701,
                "longitude": 2.577134
            },
            {
                "positionType": "airport",
                "name": "Amsterdam Airport Schiphol",
                "countryCode": "NL",
                "cityName": "Rozenburg",
                "iataCode": "AMS",
                "latitude": 52.30907,
                "longitude": 4.763385
            }
        ],
        "url": "https://www.omio.com/search-frontend/journey/flight/-1437797164/XC2D654A2721948679E1335BAEC87E211/7308889665829099837"
    },
    "-1907824268/7161936448829142077": {
        "departureTime": "2019-05-19T16:00:00.000+02:00",
        "ar_time": "2019-05-19T20:40:00.000+02:00",
        "stops": "1",
        "companyName": "Lufthansa",
        "cID": "35",
        "price": 638.21,
        "segment": [
            -1655120473,
            -1275561205
        ],
        "mode": "flight",
        "stations_dep": [
            {
                "positionType": "airport",
                "name": "Berlin Tegel Airport",
                "countryCode": "DE",
                "cityName": "Berlin",
                "iataCode": "TXL",
                "latitude": 52.5548,
                "longitude": 13.28903
            },
            {
                "positionType": "airport",
                "name": "Munich Airport",
                "countryCode": "DE",
                "cityName": "M\u00fcnchen-flughafen",
                "iataCode": "MUC",
                "latitude": 48.354597,
                "longitude": 11.785065
            }
        ],
        "stattions_ar": [
            {
                "positionType": "airport",
                "name": "Munich Airport",
                "countryCode": "DE",
                "cityName": "M\u00fcnchen-flughafen",
                "iataCode": "MUC",
                "latitude": 48.354597,
                "longitude": 11.785065
            },
            {
                "positionType": "airport",
                "name": "Amsterdam Airport Schiphol",
                "countryCode": "NL",
                "cityName": "Rozenburg",
                "iataCode": "AMS",
                "latitude": 52.30907,
                "longitude": 4.763385
            }
        ],
        "url": "https://www.omio.com/search-frontend/journey/flight/-1907824268/XC2D654A2721948679E1335BAEC87E211/7161936448829142077"
    },
    "901562309/7365720024116516157": {
        "departureTime": "2019-05-19T12:05:00.000+02:00",
        "ar_time": "2019-05-20T11:15:00.000+02:00",
        "stops": "1",
        "companyName": "Alitalia",
        "cID": "33",
        "price": 692.08,
        "segment": [
            672761325,
            -1064489098
        ],
        "mode": "flight",
        "stations_dep": [
            {
                "positionType": "airport",
                "name": "Berlin Tegel Airport",
                "countryCode": "DE",
                "cityName": "Berlin",
                "iataCode": "TXL",
                "latitude": 52.5548,
                "longitude": 13.28903
            },
            {
                "positionType": "airport",
                "name": "Rome Leonardo da Vinci Fiumicino Airport",
                "countryCode": "IT",
                "cityName": "Fiumicino",
                "iataCode": "FCO",
                "latitude": 41.794271,
                "longitude": 12.2508697
            }
        ],
        "stattions_ar": [
            {
                "positionType": "airport",
                "name": "Rome Leonardo da Vinci Fiumicino Airport",
                "countryCode": "IT",
                "cityName": "Fiumicino",
                "iataCode": "FCO",
                "latitude": 41.794271,
                "longitude": 12.2508697
            },