{
    "1438957758/5063020454706823485": {
        "departureTime": "2019-05-31T09:43:00.000+02:00",
        "ar_time": "2019-05-31T15:20:00.000+02:00",
        "stops": "1",
        "companyName": "\u00d6BB",
        "cID": "2868",
        "price": 120.98,
        "segment": [
            -234121109,
            1635264939
        ],
        "mode": "train",
        "stations_dep": [
            {
                "positionType": "station",
                "name": "M\u00fcnchen Hbf",
                "countryCode": "DE",
                "cityName": "Munich",
                "latitude": 48.140228,
                "longitude": 11.558338
            },
            {
                "positionType": "station",
                "name": "Kufstein",
                "countryCode": "AT",
                "cityName": "Kufstein",
                "latitude": 47.583077,
                "longitude": 12.165551
            }
        ],
        "stattions_ar": [
            {
                "positionType": "station",
                "name": "Kufstein",
                "countryCode": "AT",
                "cityName": "Kufstein",
                "latitude": 47.583077,
                "longitude": 12.165551
            },
            {
                "positionType": "station",
                "name": "Z\u00fcrich HB",
                "countryCode": "CH",
                "cityName": "Zurich",
                "latitude": 47.378186,
                "longitude": 8.539203
            }
        ],
        "url": "https://www.omio.com/search-frontend/journey/train/1438957758/XB925EE67E48545858B3D3D34B0D19420/5063020454706823485"
    },
    "1876082272/6004486021818233917": {
        "departureTime": "2019-05-31T04:45:00.000+02:00",
        "ar_time": "2019-05-31T08:35:00.000+02:00",
        "stops": "0",
        "companyName": "Eurolines Switzerland",
        "cID": "3113",
        "price": 16.22,
        "segment": [
            878329039
        ],
        "mode": "bus",
        "stations_dep": [
            {
                "positionType": "busstation",
                "name": "Munich - Zob (hackerbr\u00fccke)",
                "countryCode": "DE",
                "cityName": "Munich",
                "latitude": 48.14224,
                "longitude": 11.54997
            }
        ],
        "stattions_ar": [
            {
                "positionType": "busstation",
                "name": "Z\u00fcrich - Carparkplatz Sihlquai",
                "countryCode": "CH",
                "cityName": "Zurich",
                "latitude": 47.38096,
                "longitude": 8.53743
            }
        ],
        "url": "https://www.omio.com/search-frontend/journey/bus/1876082272/XB925EE67E48545858B3D3D34B0D19420/6004486021818233917"
    },
    "-1297997952/5212426509848293437": {
        "departureTime": "2019-05-31T23:30:00.000+02:00",
        "ar_time": "2019-06-01T03:45:00.000+02:00",
        "stops": "0",
        "companyName": "Eurolines France",
        "cID": "2514",
        "price": 20.86,
        "segment": [
            1527108917
        ],
        "mode": "bus",
        "stations_dep": [
            {
                "positionType": "busstation",
                "name": "M\u00fcnchen, ZOB",
                "countryCode": "DE",
                "cityName": "Munich",
                "latitude": 48.14224,
                "longitude": 11.54997
            }
        ],
        "stattions_ar": [
            {
                "positionType": "busstation",
                "name": "Z\u00fcrich, Bus-Parkplatz Sihlquai",
                "countryCode": "CH",
                "cityName": "Zurich",
                "latitude": 47.38096,
                "longitude": 8.53743
            }
        ],
        "url": "https://www.omio.com/search-frontend/journey/bus/-1297997952/XB925EE67E48545858B3D3D34B0D19420/5212426509848293437"
    },
    "675952478/5150273278419879229": {
        "departureTime": "2019-05-31T04:45:00.000+02:00",
        "ar_time": "2019-05-31T08:35:00.000+02:00",
        "stops": "0",
        "companyName": "RegioJet",
        "cID": "1053",
        "price": 16.22,
        "segment": [
            1765745830
        ],
        "mode": "bus",
        "stations_dep": [
            {
                "positionType": "busstation",
                "name": "M\u00fcnchen, ZOB",
                "countryCode": "DE",
                "cityName": "Munich",
                "latitude": 48.14224,
                "longitude": 11.54997
            }
        ],
        "stattions_ar": [
            {
                "positionType": "busstation",
                "name": "Z\u00fcrich, Bus-Parkplatz Sihlquai",
                "countryCode": "CH",
                "cityName": "Zurich",
                "latitude": 47.380363,
                "longitude": 8.537707
            }
        ],
        "url": "https://www.omio.com/search-frontend/journey/bus/675952478/XB925EE67E48545858B3D3D34B0D19420/5150273278419879229"
    },
    "2111625113/7441128994338202429": {
        "departureTime": "2019-05-31T09:03:00.000+02:00",
        "ar_time": "2019-05-31T12:45:00.000+02:00",
        "stops": "0",
        "companyName": "Deutsche Bahn",
        "cID": "112",
        "price": 28.86,
        "segment": [
            -1025163333
        ],
        "mode": "bus",
        "stations_dep": [
            {
                "positionType": "station",
                "name": "M\u00fcnchen ZOB (Hackerbr\u00fccke)",
                "countryCode": "DE",
                "cityName": "Munich",
                "latitude": 48.142269,
                "longitude": 11.549862
            }
        ],
        "stattions_ar": [
            {
                "positionType": "station",
                "name": "Z\u00fcrich HB",
                "countryCode": "CH",
                "cityName": "Zurich",
                "latitude": 47.378186,
                "longitude": 8.539203
            }
        ],
        "url": "https://www.omio.com/search-frontend/journey/bus/2111625113/XB925EE67E48545858B3D3D34B0D19420/7441128994338202429"
    },
    "-749069714/6866075402873813053": {
        "departureTime": "2019-05-31T11:03:00.000+02:00",
        "ar_time": "2019-05-31T14:45:00.000+02:00",
        "stops": "0",
        "companyName": "Deutsche Bahn",
        "cID": "112",
        "price": 23.06,
        "segment": [
            -1372126032
        ],
        "mode": "bus",
        "stations_dep": [
            {
                "positionType": "station",
                "name": "M\u00fcnchen ZOB (Hackerbr\u00fccke)",
                "countryCode": "DE",
                "cityName": "Munich",
                "latitude": 48.142269,
                "longitude": 11.549862
            }
        ],
        "stattions_ar": [
            {
                "positionType": "station",
                "name": "Z\u00fcrich HB",
                "countryCode": "CH",
                "cityName": "Zurich",
                "latitude": 47.378186,
                "longitude": 8.539203
            }
        ],
        "url": "https://www.omio.com/search-frontend/journey/bus/-749069714/XB925EE67E48545858B3D3D34B0D19420/6866075402873813053"
    },
    "1813711934/8674268462629089085": {
        "departureTime": "2019-05-31T17:33:00.000+02:00",
        "ar_time": "2019-05-31T21:15:00.000+02:00",
        "stops": "0",
        "companyName": "Deutsche Bahn",
        "cID": "112",
        "price": 28.86,
        "segment": [
            -1573512913
        ],
        "mode": "bus",
        "stations_dep": [
            {
                "positionType": "station",
                "name": "M\u00fcnchen ZOB (Hackerbr\u00fccke)",
                "countryCode": "DE",
                "cityName": "Munich",
                "latitude": 48.142269,
                "longitude": 11.549862
            }
        ],
        "stattions_ar": [
            {
                "positionType": "station",
                "name": "Z\u00fcrich HB",
                "countryCode": "CH",
                "cityName": "Zurich",
                "latitude": 47.378186,
                "longitude": 8.539203
            }
        ],
        "url": "https://www.omio.com/search-frontend/journey/bus/1813711934/XB925EE67E48545858B3D3D34B0D19420/8674268462629089085"
    },
    "1955272846/8661647133588207677": {
        "departureTime": "2019-05-31T14:03:00.000+02:00",
        "ar_time": "2019-05-31T17:45:00.000+02:00",
        "stops": "0",
        "companyName": "Deutsche Bahn",
        "cID": "112",
        "price": 28.86,
        "segment": [
            52989001
        ],
        "mode": "bus",
        "stations_dep": [
            {
                "positionType": "station",
                "name": "M\u00fcnchen ZOB (Hackerbr\u00fccke)",
                "countryCode": "DE",
                "cityName": "Munich",
                "latitude": 48.142269,
                "longitude": 11.549862
            }
        ],
        "stattions_ar": [
            {
                "positionType": "station",
                "name": "Z\u00fcrich HB",
                "countryCode": "CH",
                "cityName": "Zurich",
                "latitude": 47.378186,
                "longitude": 8.539203
            }
        ],
        "url": "https://www.omio.com/search-frontend/journey/bus/1955272846/XB925EE67E48545858B3D3D34B0D19420/8661647133588207677"
    },
    "-1262804930/5499021955024508221": {
        "departureTime": "2019-05-31T06:33:00.000+02:00",
        "ar_time": "2019-05-31T10:15:00.000+02:00",
        "stops": "0",
        "companyName": "Deutsche Bahn",
        "cID": "112",
        "price": 23.06,
        "segment": [
            232595318
        ],
        "mode": "bus",
        "stations_dep": [
            {
                "positionType": "station",
                "name": "M\u00fcnchen ZOB (Hackerbr\u00fccke)",
                "countryCode": "DE",
                "cityName": "Munich",
                "latitude": 48.142269,
                "longitude": 11.549862
            }
        ],
        "stattions_ar": [
            {
                "positionType": "station",
                "name": "Z\u00fcrich HB",
                "countryCode": "CH",
                "cityName": "Zurich",
                "latitude": 47.378186,
                "longitude": 8.539203
            }
        ],
        "url": "https://www.omio.com/search-frontend/journey/bus/-1262804930/XB925EE67E48545858B3D3D34B0D19420/5499021955024508221"
    },
    "-536799410/8528247954363409213": {
        "departureTime": "2019-05-31T16:03:00.000+02:00",
        "ar_time": "2019-05-31T19:45:00.000+02:00",
        "stops": "0",
        "companyName": "Deutsche Bahn",
        "cID": "112",
        "price": 23.06,
        "segment": [
            -892386134
        ],
        "mode": "bus",
        "stations_dep": [
            {
                "positionType": "station",
                "name": "M\u00fcnchen ZOB (Hackerbr\u00fccke)",
                "countryCode": "DE",
                "cityName": "Munich",
                "latitude": 48.142269,
                "longitude": 11.549862
            }
        ],
        "stattions_ar": [
            {
                "positionType": "station",
                "name": "Z\u00fcrich HB",
                "countryCode": "CH",
                "cityName": "Zurich",
                "latitude": 47.378186,
                "longitude": 8.539203
            }
        ],
        "url": "https://www.omio.com/search-frontend/journey/bus/-536799410/XB925EE67E48545858B3D3D34B0D19420/8528247954363409213"
    },
    "1012472646/5058784062679381821": {
        "departureTime": "2019-05-31T23:19:00.000+02:00",
        "ar_time": "2019-06-01T08:51:00.000+02:00",
        "stops": "6",
        "companyName": "Deutsche Bahn with connection",
        "cID": "3367",
        "price": 92.36,
        "segment": [
            1895626227,
            680025328,
            1264712560,
            -514267063,
            1930850233,
            -141954659,
            -633523650
        ],
        "mode": "train",
        "stations_dep": [
            {
                "positionType": "station",
                "name": "Munich Hbf",
                "countryCode": "DE",
                "cityName": "Munich",
                "latitude": 48.140228,
                "longitude": 11.558338
            },
            {
                "positionType": "station",
                "name": "Geltendorf",
                "countryCode": "DE",
                "cityName": "Geltendorf",
                "latitude": 48.105773,
                "longitude": 11.037737
            },
            {
                "positionType": "station",
                "name": "Buchloe",
                "countryCode": "DE",
                "cityName": "Buchloe",
                "latitude": 48.033724,
                "longitude": 10.71622
            },
            {
                "positionType": "station",
                "name": "Kempten(Allg\u00e4u) Hbf",
                "countryCode": "DE",
                "cityName": "Kempten (Allg\u00e4u)",
                "latitude": 47.711748,
                "longitude": 10.317611
            },
            {
                "positionType": "station",
                "name": "Lindau Hbf",
                "countryCode": "DE",
                "cityName": "Lindau (Bodensee)",
                "latitude": 47.544738,
                "longitude": 9.680303
            },
            {
                "positionType": "station",
                "name": "Bregenz",
                "countryCode": "AT",
                "cityName": "Bregenz",
                "latitude": 47.503001,
                "longitude": 9.739623
            },
            {
                "positionType": "station",
                "name": "St. Margrethen",
                "countryCode": "CH",
                "cityName": "Sankt Margrethen",
                "latitude": 47.453219,
                "longitude": 9.63827
            }
        ],
        "stattions_ar": [
            {
                "positionType": "station",
                "name": "Geltendorf",
                "countryCode": "DE",
                "cityName": "Geltendorf",
                "latitude": 48.105773,
                "longitude": 11.037737
            },
            {
                "positionType": "station",
                "name": "Buchloe",
                "countryCode": "DE",
                "cityName": "Buchloe",
                "latitude": 48.033724,
                "longitude": 10.71622
            },
            {
                "positionType": "station",
                "name": "Kempten(Allg\u00e4u) Hbf",
                "countryCode": "DE",
                "cityName": "Kempten (Allg\u00e4u)",
                "latitude": 47.711748,
                "longitude": 10.317611
            },
            {
                "positionType": "station",
                "name": "Lindau Hbf",
                "countryCode": "DE",
                "cityName": "Lindau (Bodensee)",
                "latitude": 47.544738,
                "longitude": 9.680303
            },
            {
                "positionType": "station",
                "name": "Bregenz",
                "countryCode": "AT",
                "cityName": "Bregenz",
                "latitude": 47.503001,
                "longitude": 9.739623
            },
            {
                "positionType": "station",
                "name": "St. Margrethen",
                "countryCode": "CH",
                "cityName": "Sankt Margrethen",
                "latitude": 47.453219,
                "longitude": 9.63827
            },
            {
                "positionType": "station",
                "name": "Z\u00fcrich HB",
                "countryCode": "CH",
                "cityName": "Zurich",
                "latitude": 47.378186,
                "longitude": 8.539203
            }
        ],
        "url": "https://www.omio.com/search-frontend/journey/train/1012472646/XB925EE67E48545858B3D3D34B0D19420/5058784062679381821"
    },
    "385646961/8518388757126394941": {
        "departureTime": "2019-05-31T19:43:00.000+02:00",
        "ar_time": "2019-06-01T07:21:00.000+02:00",
        "stops": "4",
        "companyName": "Deutsche Bahn with connection",
        "cID": "3367",
        "price": 127.01,
        "segment": [
            557487448,
            -1866822552,
            -2065343008,
            -149525522,
            -2144024245
        ],
        "mode": "train",
        "stations_dep": [
            {
                "positionType": "station",
                "name": "Munich Hbf",
                "countryCode": "DE",
                "cityName": "Munich",
                "latitude": 48.140228,
                "longitude": 11.558338
            },
            {
                "positionType": "station",
                "name": "Kufstein",
                "countryCode": "AT",
                "cityName": "Kufstein",
                "latitude": 47.583077,
                "longitude": 12.165551
            },
            {
                "positionType": "station",
                "name": "Bregenz",
                "countryCode": "AT",
                "cityName": "Bregenz",
                "latitude": 47.503001,
                "longitude": 9.739623
            },
            {
                "positionType": "station",
                "name": "St. Margrethen",
                "countryCode": "CH",
                "cityName": "Sankt Margrethen",
                "latitude": 47.453219,
                "longitude": 9.63827
            },
            {
                "positionType": "station",
                "name": "St. Gallen",
                "countryCode": "CH",
                "cityName": "St. Gallen",
                "latitude": 47.423177,
                "longitude": 9.369897
            }
        ],
        "stattions_ar": [
            {
                "positionType": "station",
                "name": "Kufstein",
                "countryCode": "AT",
                "cityName": "Kufstein",
                "latitude": 47.583077,
                "longitude": 12.165551
            },
            {
                "positionType": "station",
                "name": "Bregenz",
                "countryCode": "AT",
                "cityName": "Bregenz",
                "latitude": 47.503001,
                "longitude": 9.739623
            },
            {
                "positionType": "station",
                "name": "St. Margrethen",
                "countryCode": "CH",
                "cityName": "Sankt Margrethen",
                "latitude": 47.453219,
                "longitude": 9.63827
            },
            {
                "positionType": "station",
                "name": "St. Gallen",
                "countryCode": "CH",
                "cityName": "St. Gallen",
                "latitude": 47.423177,
                "longitude": 9.369897
            },
            {
                "positionType": "station",
                "name": "Z\u00fcrich HB",
                "countryCode": "CH",
                "cityName": "Zurich",
                "latitude": 47.378186,
                "longitude": 8.539203
            }
        ],
        "url": "https://www.omio.com/search-frontend/journey/train/385646961/XB925EE67E48545858B3D3D34B0D19420/8518388757126394941"
    },
    "453612606/6230289461531014973": {
        "departureTime": "2019-05-31T18:44:00.000+02:00",
        "ar_time": "2019-06-01T01:24:00.000+02:00",
        "stops": "2",
        "companyName": "Deutsche Bahn",
        "cID": "112",
        "price": 115.77,
        "segment": [
            123426946,
            1257046413,
            1265666142
        ],
        "mode": "train",
        "stations_dep": [
            {
                "positionType": "station",
                "name": "Munich Hbf",
                "countryCode": "DE",
                "cityName": "Munich",
                "latitude": 48.140228,
                "longitude": 11.558338
            },
            {
                "positionType": "station",
                "name": "Karlsruhe Hbf",
                "countryCode": "DE",
                "cityName": "Karlsruhe",
                "latitude": 48.993538,
                "longitude": 8.400374
            },
            {
                "positionType": "station",
                "name": "Basel SBB",
                "countryCode": "CH",
                "cityName": "Basel",
                "latitude": 47.547075,
                "longitude": 7.589169
            }
        ],
        "stattions_ar": [
            {
                "positionType": "station",
                "name": "Karlsruhe Hbf",
                "countryCode": "DE",
                "cityName": "Karlsruhe",
                "latitude": 48.993538,
                "longitude": 8.400374
            },
            {
                "positionType": "station",
                "name": "Basel SBB",
                "countryCode": "CH",
                "cityName": "Basel",
                "latitude": 47.547075,
                "longitude": 7.589169
            },
            {
                "positionType": "station",
                "name": "Z\u00fcrich HB",
                "countryCode": "CH",
                "cityName": "Zurich",
                "latitude": 47.378186,
                "longitude": 8.539203
            }
        ],
        "url": "https://www.omio.com/search-frontend/journey/train/453612606/XB925EE67E48545858B3D3D34B0D19420/6230289461531014973"
    },
    "1504777758/5780167026571244349": {
        "departureTime": "2019-05-31T18:44:00.000+02:00",
        "ar_time": "2019-06-01T00:23:00.000+02:00",
        "stops": "4",
        "companyName": "Deutsche Bahn",
        "cID": "112",
        "price": 69.41,
        "segment": [
            1542924107,
            1750632567,
            455660610,
            595106577,
            307274841
        ],
        "mode": "train",
        "stations_dep": [
            {
                "positionType": "station",
                "name": "Munich Hbf",
                "countryCode": "DE",
                "cityName": "Munich",
                "latitude": 48.140228,
                "longitude": 11.558338
            },
            {
                "positionType": "station",
                "name": "Ulm Hbf",
                "countryCode": "DE",
                "cityName": "Ulm",
                "latitude": 48.399432,
                "longitude": 9.982224
            },
            {
                "positionType": "station",
                "name": "Immendingen",
                "countryCode": "DE",
                "cityName": "Immendingen",
                "latitude": 47.936002,
                "longitude": 8.729532
            },
            {
                "positionType": "station",
                "name": "Singen(Hohentwiel)",
                "countryCode": "DE",
                "cityName": "Singen",
                "latitude": 47.758438,
                "longitude": 8.840378
            },
            {
                "positionType": "station",
                "name": "Schaffhausen",
                "countryCode": "CH",
                "cityName": "Schaffhausen",
                "latitude": 47.698283,
                "longitude": 8.632736
            }
        ],
        "stattions_ar": [
            {
                "positionType": "station",
                "name": "Ulm Hbf",
                "countryCode": "DE",
                "cityName": "Ulm",
                "latitude": 48.399432,
                "longitude": 9.982224
            },
            {
                "positionType": "station",
                "name": "Immendingen",
                "countryCode": "DE",
                "cityName": "Immendingen",
                "latitude": 47.936002,
                "longitude": 8.729532
            },
            {
                "positionType": "station",
                "name": "Singen(Hohentwiel)",
                "countryCode": "DE",
                "cityName": "Singen",
                "latitude": 47.758438,
                "longitude": 8.840378
            },
            {
                "positionType": "station",
                "name": "Schaffhausen",
                "countryCode": "CH",
                "cityName": "Schaffhausen",
                "latitude": 47.698283,
                "longitude": 8.632736
            },
            {
                "positionType": "station",
                "name": "Z\u00fcrich HB",
                "countryCode": "CH",
                "cityName": "Zurich",
                "latitude": 47.378186,
                "longitude": 8.539203
            }
        ],
        "url": "https://www.omio.com/search-frontend/journey/train/1504777758/XB925EE67E48545858B3D3D34B0D19420/5780167026571244349"
    },
    "-606105226/8669265898999593021": {
        "departureTime": "2019-05-31T00:01:00.000+02:00",
        "ar_time": "2019-05-31T08:55:00.000+02:00",
        "stops": "5",
        "companyName": "Deutsche Bahn",
        "cID": "112",
        "price": 74.75,
        "segment": [
            -1353358176,
            1061989772,
            -1631927289,
            1229631524,
            948248546,
            989871805
        ],
        "mode": "train",
        "stations_dep": [
            {
                "positionType": "station",
                "name": "Munich Hbf",
                "countryCode": "DE",
                "cityName": "Munich",
                "latitude": 48.140228,
                "longitude": 11.558338
            },
            {
                "positionType": "station",
                "name": "Ulm Hbf",
                "countryCode": "DE",
                "cityName": "Ulm",
                "latitude": 48.399432,
                "longitude": 9.982224
            },
            {
                "positionType": "busstation",
                "name": "Bahnhof/freiburger S"
            },
            {
                "positionType": "station",
                "name": "Aulendorf",
                "countryCode": "DE",
                "cityName": "Aulendorf",
                "latitude": 47.953055,
                "longitude": 9.64405
            },
            {
                "positionType": "station",
                "name": "Friedrichshafen F\u00e4hre",
                "countryCode": "DE",
                "cityName": "Friedrichshafen",
                "latitude": 47.650999,
                "longitude": 9.484069
            },
            {
                "positionType": "station",
                "name": "Romanshorn",
                "countryCode": "CH",
                "cityName": "Romanshorn",
                "latitude": 47.5657,
                "longitude": 9.377256
            }
        ],
        "stattions_ar": [
            {
                "positionType": "station",
                "name": "Ulm Hbf",
                "countryCode": "DE",
                "cityName": "Ulm",
                "latitude": 48.399432,
                "longitude": 9.982224
            },
            {
                "positionType": "station",
                "name": "Biberach(Ri\u00df)",
                "countryCode": "DE",
                "cityName": "Biberach an der Riss",
                "latitude": 48.101844,
                "longitude": 9.793127
            },
            {
                "positionType": "busstation",
                "name": "Bahnhof, Aulendorf"
            },
            {
                "positionType": "station",
                "name": "Friedrichshafen Hafen",
                "countryCode": "DE",
                "cityName": "Friedrichshafen",
                "latitude": 47.651098,
                "longitude": 9.482747
            },
            {
                "positionType": "station",
                "name": "Romanshorn Autoquai",
                "countryCode": "CH",
                "cityName": "Romanshorn",
                "latitude": 47.564658,
                "longitude": 9.381115
            },
            {
                "positionType": "station",
                "name": "Z\u00fcrich HB",
                "countryCode": "CH",
                "cityName": "Zurich",
                "latitude": 47.378186,
                "longitude": 8.539203
            }
        ],
        "url": "https://www.omio.com/search-frontend/journey/train/-606105226/XB925EE67E48545858B3D3D34B0D19420/8669265898999593021"
    },
    "-1008872260/5640313653680759613": {
        "departureTime": "2019-05-31T00:01:00.000+02:00",
        "ar_time": "2019-05-31T09:00:00.000+02:00",
        "stops": "1",
        "companyName": "Deutsche Bahn",
        "cID": "112",
        "price": 92.59,
        "segment": [
            1342622167,
            1184335857
        ],
        "mode": "train",
        "stations_dep": [
            {
                "positionType": "station",
                "name": "Munich Hbf",
                "countryCode": "DE",
                "cityName": "Munich",
                "latitude": 48.140228,
                "longitude": 11.558338
            },
            {
                "positionType": "station",
                "name": "Karlsruhe Hbf",
                "countryCode": "DE",
                "cityName": "Karlsruhe",
                "latitude": 48.993538,
                "longitude": 8.400374
            }
        ],
        "stattions_ar": [
            {
                "positionType": "station",
                "name": "Karlsruhe Hbf",
                "countryCode": "DE",
                "cityName": "Karlsruhe",
                "latitude": 48.993538,
                "longitude": 8.400374
            },
            {
                "positionType": "station",
                "name": "Z\u00fcrich HB",
                "countryCode": "CH",
                "cityName": "Zurich",
                "latitude": 47.378186,
                "longitude": 8.539203
            }
        ],
        "url": "https://www.omio.com/search-frontend/journey/train/-1008872260/XB925EE67E48545858B3D3D34B0D19420/5640313653680759613"
    },
    "817582876/5140971422346795325": {
        "departureTime": "2019-05-31T19:28:00.000+02:00",
        "ar_time": "2019-06-01T05:27:00.000+02:00",
        "stops": "3",
        "companyName": "Deutsche Bahn",
        "cID": "112",
        "price": 115.77,
        "segment": [
            -1031027717,
            -1709897425,
            2115909318,
            -1328584023
        ],
        "mode": "train",
        "stations_dep": [
            {
                "positionType": "station",
                "name": "Munich Hbf",
                "countryCode": "DE",
                "cityName": "Munich",
                "latitude": 48.140228,
                "longitude": 11.558338
            },
            {
                "positionType": "station",
                "name": "Mannheim Hbf",
                "countryCode": "DE",
                "cityName": "Mannheim",
                "latitude": 49.479351,
                "longitude": 8.468917
            },
            {
                "positionType": "station",
                "name": "Basel SBB",
                "countryCode": "CH",
                "cityName": "Basel",
                "latitude": 47.547075,
                "longitude": 7.589169
            },
            {
                "positionType": "station",
                "name": "Olten",
                "countryCode": "CH",
                "cityName": "Olten",
                "latitude": 47.350833,
                "longitude": 7.907778
            }
        ],
        "stattions_ar": [
            {
                "positionType": "station",
                "name": "Mannheim Hbf",
                "countryCode": "DE",
                "cityName": "Mannheim",
                "latitude": 49.479351,
                "longitude": 8.468917
            },
            {
                "positionType": "station",
                "name": "Basel SBB",
                "countryCode": "CH",
                "cityName": "Basel",
                "latitude": 47.547075,
                "longitude": 7.589169
            },
            {
                "positionType": "station",
                "name": "Olten",
                "countryCode": "CH",
                "cityName": "Olten",
                "latitude": 47.350833,
                "longitude": 7.907778
            },
            {
                "positionType": "station",
                "name": "Z\u00fcrich HB",
                "countryCode": "CH",
                "cityName": "Zurich",
                "latitude": 47.378186,
                "longitude": 8.539203
            }
        ],
        "url": "https://www.omio.com/search-frontend/journey/train/817582876/XB925EE67E48545858B3D3D34B0D19420/5140971422346795325"
    },
    "1882294255/7380326950138759485": {
        "departureTime": "2019-05-31T12:14:00.000+02:00",
        "ar_time": "2019-05-31T16:58:00.000+02:00",
        "stops": "0",
        "companyName": "Deutsche Bahn",
        "cID": "112",
        "price": 97.11,
        "segment": [
            790563828
        ],
        "mode": "train",
        "stations_dep": [
            {
                "positionType": "station",
                "name": "Munich Hbf",
                "countryCode": "DE",
                "cityName": "Munich",
                "latitude": 48.140228,
                "longitude": 11.558338
            }
        ],
        "stattions_ar": [
            {
                "positionType": "station",
                "name": "Z\u00fcrich HB",
                "countryCode": "CH",
                "cityName": "Zurich",
                "latitude": 47.378186,
                "longitude": 8.539203
            }
        ],
        "url": "https://www.omio.com/search-frontend/journey/train/1882294255/XB925EE67E48545858B3D3D34B0D19420/7380326950138759485"
    },
    "395742511/8103473501646828605": {
        "departureTime": "2019-05-31T22:20:00.000+02:00",
        "ar_time": "2019-06-01T08:51:00.000+02:00",
        "stops": "5",
        "companyName": "Deutsche Bahn with connection",
        "cID": "3367",
        "price": 92.36,
        "segment": [
            -643176675,
            1264712560,
            -514267063,
            1930850233,
            -141954659,
            -633523650
        ],
        "mode": "train",
        "stations_dep": [
            {
                "positionType": "station",
                "name": "Munich Hbf",
                "countryCode": "DE",
                "cityName": "Munich",
                "latitude": 48.140228,
                "longitude": 11.558338
            },
            {
                "positionType": "station",
                "name": "Buchloe",
                "countryCode": "DE",
                "cityName": "Buchloe",
                "latitude": 48.033724,
                "longitude": 10.71622
            },
            {
                "positionType": "station",
                "name": "Kempten(Allg\u00e4u) Hbf",
                "countryCode": "DE",
                "cityName": "Kempten (Allg\u00e4u)",
                "latitude": 47.711748,
                "longitude": 10.317611
            },
            {
                "positionType": "station",
                "name": "Lindau Hbf",
                "countryCode": "DE",
                "cityName": "Lindau (Bodensee)",
                "latitude": 47.544738,
                "longitude": 9.680303
            },
            {
                "positionType": "station",
                "name": "Bregenz",
                "countryCode": "AT",
                "cityName": "Bregenz",
                "latitude": 47.503001,
                "longitude": 9.739623
            },
            {
                "positionType": "station",
                "name": "St. Margrethen",
                "countryCode": "CH",
                "cityName": "Sankt Margrethen",
                "latitude": 47.453219,
                "longitude": 9.63827
            }
        ],
        "stattions_ar": [
            {
                "positionType": "station",
                "name": "Buchloe",
                "countryCode": "DE",
                "cityName": "Buchloe",
                "latitude": 48.033724,
                "longitude": 10.71622
            },
            {
                "positionType": "station",
                "name": "Kempten(Allg\u00e4u) Hbf",
                "countryCode": "DE",
                "cityName": "Kempten (Allg\u00e4u)",
                "latitude": 47.711748,
                "longitude": 10.317611
            },
            {
                "positionType": "station",
                "name": "Lindau Hbf",
                "countryCode": "DE",
                "cityName": "Lindau (Bodensee)",
                "latitude": 47.544738,
                "longitude": 9.680303
            },
            {
                "positionType": "station",
                "name": "Bregenz",
                "countryCode": "AT",
                "cityName": "Bregenz",
                "latitude": 47.503001,
                "longitude": 9.739623
            },
            {
                "positionType": "station",
                "name": "St. Margrethen",
                "countryCode": "CH",
                "cityName": "Sankt Margrethen",
                "latitude": 47.453219,
                "longitude": 9.63827
            },
            {
                "positionType": "station",
                "name": "Z\u00fcrich HB",
                "countryCode": "CH",
                "cityName": "Zurich",
                "latitude": 47.378186,
                "longitude": 8.539203
            }
        ],
        "url": "https://www.omio.com/search-frontend/journey/train/395742511/XB925EE67E48545858B3D3D34B0D19420/8103473501646828605"
    },
    "265797985/5645939897763849021": {
        "departureTime": "2019-05-31T18:20:00.000+02:00",
        "ar_time": "2019-05-31T23:51:00.000+02:00",
        "stops": "5",
        "companyName": "Deutsche Bahn",
        "cID": "112",
        "price": 92.36,
        "segment": [
            -1749633780,
            -1868943806,
            -331977915,
            -103922815,
            -1554738371,
            1486731317
        ],
        "mode": "train",
        "stations_dep": [
            {
                "positionType": "station",
                "name": "Munich Hbf",
                "countryCode": "DE",
                "cityName": "Munich",
                "latitude": 48.140228,
                "longitude": 11.558338
            },
            {
                "positionType": "station",
                "name": "Buchloe",
                "countryCode": "DE",
                "cityName": "Buchloe",
                "latitude": 48.033724,
                "longitude": 10.71622
            },
            {
                "positionType": "station",
                "name": "Lindau Hbf",
                "countryCode": "DE",
                "cityName": "Lindau (Bodensee)",
                "latitude": 47.544738,
                "longitude": 9.680303
            },
            {
                "positionType": "station",
                "name": "Bregenz",
                "countryCode": "AT",
                "cityName": "Bregenz",
                "latitude": 47.503001,
                "longitude": 9.739623
            },
            {
                "positionType": "station",
                "name": "St. Margrethen",
                "countryCode": "CH",
                "cityName": "Sankt Margrethen",
                "latitude": 47.453219,
                "longitude": 9.63827
            },
            {
                "positionType": "station",
                "name": "St. Gallen",
                "countryCode": "CH",
                "cityName": "St. Gallen",
                "latitude": 47.423177,
                "longitude": 9.369897
            }
        ],
        "stattions_ar": [
            {
                "positionType": "station",
                "name": "Buchloe",
                "countryCode": "DE",
                "cityName": "Buchloe",
                "latitude": 48.033724,
                "longitude": 10.71622
            },
            {
                "positionType": "station",
                "name": "Lindau Hbf",
                "countryCode": "DE",
                "cityName": "Lindau (Bodensee)",
                "latitude": 47.544738,
                "longitude": 9.680303
            },
            {
                "positionType": "station",
                "name": "Bregenz",
                "countryCode": "AT",
                "cityName": "Bregenz",
                "latitude": 47.503001,
                "longitude": 9.739623
            },
            {
                "positionType": "station",
                "name": "St. Margrethen",
                "countryCode": "CH",
                "cityName": "Sankt Margrethen",
                "latitude": 47.453219,
                "longitude": 9.63827
            },
            {
                "positionType": "station",
                "name": "St. Gallen",
                "countryCode": "CH",
                "cityName": "St. Gallen",
                "latitude": 47.423177,
                "longitude": 9.369897
            },
            {
                "positionType": "station",
                "name": "Z\u00fcrich HB",
                "countryCode": "CH",
                "cityName": "Zurich",
                "latitude": 47.378186,
                "longitude": 8.539203
            }
        ],
        "url": "https://www.omio.com/search-frontend/journey/train/265797985/XB925EE67E48545858B3D3D34B0D19420/5645939897763849021"
    },
    "705039617/6444202708509475133": {
        "departureTime": "2019-05-31T20:20:00.000+02:00",
        "ar_time": "2019-06-01T07:21:00.000+02:00",
        "stops": "5",
        "companyName": "Deutsche Bahn",
        "cID": "112",
        "price": 92.36,
        "segment": [
            -1377356603,
            -2009748795,
            1925985175,
            -2065343008,
            -149525522,
            -2144024245
        ],
        "mode": "train",
        "stations_dep": [
            {
                "positionType": "station",
                "name": "Munich Hbf",
                "countryCode": "DE",
                "cityName": "Munich",
                "latitude": 48.140228,
                "longitude": 11.558338
            },
            {
                "positionType": "station",
                "name": "Buchloe",
                "countryCode": "DE",
                "cityName": "Buchloe",
                "latitude": 48.033724,
                "longitude": 10.71622
            },
            {
                "positionType": "station",
                "name": "Lindau Hbf",
                "countryCode": "DE",
                "cityName": "Lindau (Bodensee)",
                "latitude": 47.544738,
                "longitude": 9.680303
            },
            {
                "positionType": "station",
                "name": "Bregenz",
                "countryCode": "AT",
                "cityName": "Bregenz",
                "latitude": 47.503001,
                "longitude": 9.739623
            },
            {
                "positionType": "station",
                "name": "St. Margrethen",
                "countryCode": "CH",
                "cityName": "Sankt Margrethen",
                "latitude": 47.453219,
                "longitude": 9.63827
            },
            {
                "positionType": "station",
                "name": "St. Gallen",
                "countryCode": "CH",
                "cityName": "St. Gallen",
                "latitude": 47.423177,
                "longitude": 9.369897
            }
        ],
        "stattions_ar": [
            {
                "positionType": "station",
                "name": "Buchloe",
                "countryCode": "DE",
                "cityName": "Buchloe",
                "latitude": 48.033724,
                "longitude": 10.71622
            },
            {
                "positionType": "station",
                "name": "Lindau Hbf",
                "countryCode": "DE",
                "cityName": "Lindau (Bodensee)",
                "latitude": 47.544738,
                "longitude": 9.680303
            },
            {
                "positionType": "station",
                "name": "Bregenz",
                "countryCode": "AT",
                "cityName": "Bregenz",
                "latitude": 47.503001,
                "longitude": 9.739623
            },
            {
                "positionType": "station",
                "name": "St. Margrethen",
                "countryCode": "CH",
                "cityName": "Sankt Margrethen",
                "latitude": 47.453219,
                "longitude": 9.63827
            },
            {
                "positionType": "station",
                "name": "St. Gallen",
                "countryCode": "CH",
                "cityName": "St. Gallen",
                "latitude": 47.423177,
                "longitude": 9.369897
            },
            {
                "positionType": "station",
                "name": "Z\u00fcrich HB",
                "countryCode": "CH",
                "cityName": "Zurich",
                "latitude": 47.378186,
                "longitude": 8.539203
            }
        ],
        "url": "https://www.omio.com/search-frontend/journey/train/705039617/XB925EE67E48545858B3D3D34B0D19420/6444202708509475133"
    },
    "74328003/7379549540592936765": {
        "departureTime": "2019-05-31T18:15:00.000+02:00",
        "ar_time": "2019-05-31T22:58:00.000+02:00",
        "stops": "0",
        "companyName": "Deutsche Bahn",
        "cID": "112",
        "price": 57.83,
        "segment": [
            -1270158452
        ],
        "mode": "train",
        "stations_dep": [
            {
                "positionType": "station",
                "name": "Munich Hbf",
                "countryCode": "DE",
                "cityName": "Munich",
                "latitude": 48.140228,
                "longitude": 11.558338
            }
        ],
        "stattions_ar": [
            {
                "positionType": "station",
                "name": "Z\u00fcrich HB",
                "countryCode": "CH",
                "cityName": "Zurich",
                "latitude": 47.378186,
                "longitude": 8.539203
            }
        ],
        "url": "https://www.omio.com/search-frontend/journey/train/74328003/XB925EE67E48545858B3D3D34B0D19420/7379549540592936765"
    },
    "-1397906706/8104352059386984253": {
        "departureTime": "2019-05-31T00:01:00.000+02:00",
        "ar_time": "2019-05-31T07:26:00.000+02:00",
        "stops": "2",
        "companyName": "Deutsche Bahn",
        "cID": "112",
        "price": 92.59,
        "segment": [
            1342622167,
            1404245535,
            929644484
        ],
        "mode": "train",
        "stations_dep": [
            {
                "positionType": "station",
                "name": "Munich Hbf",
                "countryCode": "DE",
                "cityName": "Munich",
                "latitude": 48.140228,
                "longitude": 11.558338
            },
            {
                "positionType": "station",
                "name": "Karlsruhe Hbf",
                "countryCode": "DE",
                "cityName": "Karlsruhe",
                "latitude": 48.993538,
                "longitude": 8.400374
            },
            {
                "positionType": "station",
                "name": "Basel SBB",
                "countryCode": "CH",
                "cityName": "Basel",
                "latitude": 47.547075,
                "longitude": 7.589169
            }
        ],
        "stattions_ar": [
            {
                "positionType": "station",
                "name": "Karlsruhe Hbf",
                "countryCode": "DE",
                "cityName": "Karlsruhe",
                "latitude": 48.993538,
                "longitude": 8.400374
            },
            {
                "positionType": "station",
                "name": "Basel SBB",
                "countryCode": "CH",
                "cityName": "Basel",
                "latitude": 47.547075,
                "longitude": 7.589169
            },
            {
                "positionType": "station",
                "name": "Z\u00fcrich HB",
                "countryCode": "CH",
                "cityName": "Zurich",
                "latitude": 47.378186,
                "longitude": 8.539203
            }
        ],
        "url": "https://www.omio.com/search-frontend/journey/train/-1397906706/XB925EE67E48545858B3D3D34B0D19420/8104352059386984253"
    },
    "-1168433443/5131410275421802813": {
        "departureTime": "2019-05-31T07:03:00.000+02:00",
        "ar_time": "2019-05-31T11:58:00.000+02:00",
        "stops": "0",
        "companyName": "Deutsche Bahn",
        "cID": "112",
        "price": 69.41,
        "segment": [
            853579045
        ],
        "mode": "train",
        "stations_dep": [
            {
                "positionType": "station",
                "name": "Munich Hbf",
                "countryCode": "DE",
                "cityName": "Munich",
                "latitude": 48.140228,
                "longitude": 11.558338
            }
        ],
        "stattions_ar": [
            {
                "positionType": "station",
                "name": "Z\u00fcrich HB",
                "countryCode": "CH",
                "cityName": "Zurich",
                "latitude": 47.378186,
                "longitude": 8.539203
            }
        ],
        "url": "https://www.omio.com/search-frontend/journey/train/-1168433443/XB925EE67E48545858B3D3D34B0D19420/5131410275421802813"
    },
    "1246733082/7442858590567018557": {
        "departureTime": "2019-05-31T00:01:00.000+02:00",
        "ar_time": "2019-05-31T08:25:00.000+02:00",
        "stops": "6",
        "companyName": "Deutsche Bahn",
        "cID": "112",
        "price": 74.75,
        "segment": [
            -1353358176,
            1061989772,
            -1631927289,
            1229631524,
            948248546,
            865851396,
            -366651111
        ],
        "mode": "train",
        "stations_dep": [
            {
                "positionType": "station",
                "name": "Munich Hbf",
                "countryCode": "DE",
                "cityName": "Munich",
                "latitude": 48.140228,
                "longitude": 11.558338
            },
            {
                "positionType": "station",
                "name": "Ulm Hbf",
                "countryCode": "DE",
                "cityName": "Ulm",
                "latitude": 48.399432,
                "longitude": 9.982224
            },
            {
                "positionType": "busstation",
                "name": "Bahnhof/freiburger S"
            },
            {
                "positionType": "station",
                "name": "Aulendorf",
                "countryCode": "DE",
                "cityName": "Aulendorf",
                "latitude": 47.953055,
                "longitude": 9.64405
            },
            {
                "positionType": "station",
                "name": "Friedrichshafen F\u00e4hre",
                "countryCode": "DE",
                "cityName": "Friedrichshafen",
                "latitude": 47.650999,
                "longitude": 9.484069
            },
            {
                "positionType": "station",
                "name": "Romanshorn",
                "countryCode": "CH",
                "cityName": "Romanshorn",
                "latitude": 47.5657,
                "longitude": 9.377256
            },
            {
                "positionType": "station",
                "name": "Weinfelden",
                "countryCode": "CH",
                "cityName": "Weinfelden",
                "latitude": 47.566389,
                "longitude": 9.106389
            }
        ],
        "stattions_ar": [
            {
                "positionType": "station",
                "name": "Ulm Hbf",
                "countryCode": "DE",
                "cityName": "Ulm",
                "latitude": 48.399432,
                "longitude": 9.982224
            },
            {
                "positionType": "station",
                "name": "Biberach(Ri\u00df)",
                "countryCode": "DE",
                "cityName": "Biberach an der Riss",
                "latitude": 48.101844,
                "longitude": 9.793127
            },
            {
                "positionType": "busstation",
                "name": "Bahnhof, Aulendorf"
            },
            {
                "positionType": "station",
                "name": "Friedrichshafen Hafen",
                "countryCode": "DE",
                "cityName": "Friedrichshafen",
                "latitude": 47.651098,
                "longitude": 9.482747
            },
            {
                "positionType": "station",
                "name": "Romanshorn Autoquai",
                "countryCode": "CH",
                "cityName": "Romanshorn",
                "latitude": 47.564658,
                "longitude": 9.381115
            },
            {
                "positionType": "station",
                "name": "Weinfelden",
                "countryCode": "CH",
                "cityName": "Weinfelden",
                "latitude": 47.566389,
                "longitude": 9.106389
            },
            {
                "positionType": "station",
                "name": "Z\u00fcrich HB",
                "countryCode": "CH",
                "cityName": "Zurich",
                "latitude": 47.378186,
                "longitude": 8.539203
            }
        ],
        "url": "https://www.omio.com/search-frontend/journey/train/1246733082/XB925EE67E48545858B3D3D34B0D19420/7442858590567018557"
    },
    "148684739/5062725793727395901": {
        "departureTime": "2019-05-31T19:28:00.000+02:00",
        "ar_time": "2019-06-01T05:49:00.000+02:00",
        "stops": "2",
        "companyName": "Deutsche Bahn",
        "cID": "112",
        "price": 115.77,
        "segment": [
            -1031027717,
            -1709897425,
            1050022293
        ],
        "mode": "train",
        "stations_dep": [
            {
                "positionType": "station",
                "name": "Munich Hbf",
                "countryCode": "DE",
                "cityName": "Munich",
                "latitude": 48.140228,
                "longitude": 11.558338
            },
            {
                "positionType": "station",
                "name": "Mannheim Hbf",
                "countryCode": "DE",
                "cityName": "Mannheim",
                "latitude": 49.479351,
                "longitude": 8.468917
            },
            {
                "positionType": "station",
                "name": "Basel SBB",
                "countryCode": "CH",
                "cityName": "Basel",
                "latitude": 47.547075,
                "longitude": 7.589169
            }
        ],
        "stattions_ar": [
            {
                "positionType": "station",
                "name": "Mannheim Hbf",
                "countryCode": "DE",
                "cityName": "Mannheim",
                "latitude": 49.479351,
                "longitude": 8.468917
            },
            {
                "positionType": "station",
                "name": "Basel SBB",
                "countryCode": "CH",
                "cityName": "Basel",
                "latitude": 47.547075,
                "longitude": 7.589169
            },
            {
                "positionType": "station",
                "name": "Z\u00fcrich HB",
                "countryCode": "CH",
                "cityName": "Zurich",
                "latitude": 47.378186,
                "longitude": 8.539203
            }
        ],
        "url": "https://www.omio.com/search-frontend/journey/train/148684739/XB925EE67E48545858B3D3D34B0D19420/5062725793727395901"
    },
    "-2009614887/6218744536721550141": {
        "departureTime": "2019-05-31T11:19:00.000+02:00",
        "ar_time": "2019-05-31T16:51:00.000+02:00",
        "stops": "3",
        "companyName": "Deutsche Bahn with connection",
        "cID": "3367",
        "price": 92.36,
        "segment": [
            -518337722,
            -717922293,
            -1158730901,
            842253244
        ],
        "mode": "train",
        "stations_dep": [
            {
                "positionType": "station",
                "name": "Munich Hbf",
                "countryCode": "DE",
                "cityName": "Munich",
                "latitude": 48.140228,
                "longitude": 11.558338
            },
            {
                "positionType": "station",
                "name": "Lindau Hbf",
                "countryCode": "DE",
                "cityName": "Lindau (Bodensee)",
                "latitude": 47.544738,
                "longitude": 9.680303
            },
            {
                "positionType": "station",
                "name": "Bregenz",
                "countryCode": "AT",
                "cityName": "Bregenz",
                "latitude": 47.503001,
                "longitude": 9.739623
            },
            {
                "positionType": "station",
                "name": "St. Margrethen",
                "countryCode": "CH",
                "cityName": "Sankt Margrethen",
                "latitude": 47.453219,
                "longitude": 9.63827
            }
        ],
        "stattions_ar": [
            {
                "positionType": "station",
                "name": "Lindau Hbf",
                "countryCode": "DE",
                "cityName": "Lindau (Bodensee)",
                "latitude": 47.544738,
                "longitude": 9.680303
            },
            {
                "positionType": "station",
                "name": "Bregenz",
                "countryCode": "AT",
                "cityName": "Bregenz",
                "latitude": 47.503001,
                "longitude": 9.739623
            },
            {
                "positionType": "station",
                "name": "St. Margrethen",
                "countryCode": "CH",
                "cityName": "Sankt Margrethen",
                "latitude": 47.453219,
                "longitude": 9.63827
            },
            {
                "positionType": "station",
                "name": "Z\u00fcrich HB",
                "countryCode": "CH",
                "cityName": "Zurich",
                "latitude": 47.378186,
                "longitude": 8.539203
            }
        ],
        "url": "https://www.omio.com/search-frontend/journey/train/-2009614887/XB925EE67E48545858B3D3D34B0D19420/6218744536721550141"
    },
    "-1342638157/4775914874472051773": {
        "departureTime": "2019-05-31T19:19:00.000+02:00",
        "ar_time": "2019-06-01T00:53:00.000+02:00",
        "stops": "4",
        "companyName": "Deutsche Bahn with connection",
        "cID": "3367",
        "price": 92.36,
        "segment": [
            -1344331866,
            -887776940,
            -158813701,
            -724436015,
            -1257591217
        ],
        "mode": "train",
        "stations_dep": [
            {
                "positionType": "station",
                "name": "Munich Hbf",
                "countryCode": "DE",
                "cityName": "Munich",
                "latitude": 48.140228,
                "longitude": 11.558338
            },
            {
                "positionType": "station",
                "name": "Lindau Hbf",
                "countryCode": "DE",
                "cityName": "Lindau (Bodensee)",
                "latitude": 47.544738,
                "longitude": 9.680303
            },
            {
                "positionType": "station",
                "name": "Bregenz",
                "countryCode": "AT",
                "cityName": "Bregenz",
                "latitude": 47.503001,
                "longitude": 9.739623
            },
            {
                "positionType": "station",
                "name": "St. Margrethen",
                "countryCode": "CH",
                "cityName": "Sankt Margrethen",
                "latitude": 47.453219,
                "longitude": 9.63827
            },
            {
                "positionType": "station",
                "name": "St. Gallen",
                "countryCode": "CH",
                "cityName": "St. Gallen",
                "latitude": 47.423177,
                "longitude": 9.369897
            }
        ],
        "stattions_ar": [
            {
                "positionType": "station",
                "name": "Lindau Hbf",
                "countryCode": "DE",
                "cityName": "Lindau (Bodensee)",
                "latitude": 47.544738,
                "longitude": 9.680303
            },
            {
                "positionType": "station",
                "name": "Bregenz",
                "countryCode": "AT",
                "cityName": "Bregenz",
                "latitude": 47.503001,
                "longitude": 9.739623
            },
            {
                "positionType": "station",
                "name": "St. Margrethen",
                "countryCode": "CH",
                "cityName": "Sankt Margrethen",
                "latitude": 47.453219,
                "longitude": 9.63827
            },
            {
                "positionType": "station",
                "name": "St. Gallen",
                "countryCode": "CH",
                "cityName": "St. Gallen",
                "latitude": 47.423177,
                "longitude": 9.369897
            },
            {
                "positionType": "station",
                "name": "Z\u00fcrich HB",
                "countryCode": "CH",
                "cityName": "Zurich",
                "latitude": 47.378186,
                "longitude": 8.539203
            }
        ],
        "url": "https://www.omio.com/search-frontend/journey/train/-1342638157/XB925EE67E48545858B3D3D34B0D19420/4775914874472051773"
    },
    "379370261/4063499557238818109": {
        "departureTime": "2019-05-31T03:24:00.000+02:00",
        "ar_time": "2019-05-31T09:23:00.000+02:00",
        "stops": "1",
        "companyName": "Deutsche Bahn",
        "cID": "112",
        "price": 69.41,
        "segment": [
            -1824029206,
            -2078479633
        ],
        "mode": "train",
        "stations_dep": [
            {
                "positionType": "station",
                "name": "Munich Hbf",
                "countryCode": "DE",
                "cityName": "Munich",
                "latitude": 48.140228,
                "longitude": 11.558338
            },
            {
                "positionType": "station",
                "name": "Stuttgart Hbf",
                "countryCode": "DE",
                "cityName": "Stuttgart",
                "latitude": 48.784081,
                "longitude": 9.181636
            }
        ],
        "stattions_ar": [
            {
                "positionType": "station",
                "name": "Stuttgart Hbf",
                "countryCode": "DE",
                "cityName": "Stuttgart",
                "latitude": 48.784081,
                "longitude": 9.181636
            },
            {
                "positionType": "station",
                "name": "Z\u00fcrich HB",
                "countryCode": "CH",
                "cityName": "Zurich",
                "latitude": 47.378186,
                "longitude": 8.539203
            }
        ],
        "url": "https://www.omio.com/search-frontend/journey/train/379370261/XB925EE67E48545858B3D3D34B0D19420/4063499557238818109"
    },
    "-1076342497/5867192479229425725": {
        "departureTime": "2019-05-31T18:44:00.000+02:00",
        "ar_time": "2019-06-01T01:04:00.000+02:00",
        "stops": "3",
        "companyName": "Deutsche Bahn",
        "cID": "112",
        "price": 115.77,
        "segment": [
            123426946,
            1257046413,
            748648430,
            -2024686271
        ],
        "mode": "train",
        "stations_dep": [
            {
                "positionType": "station",
                "name": "Munich Hbf",
                "countryCode": "DE",
                "cityName": "Munich",
                "latitude": 48.140228,
                "longitude": 11.558338
            },
            {
                "positionType": "station",
                "name": "Karlsruhe Hbf",
                "countryCode": "DE",
                "cityName": "Karlsruhe",
                "latitude": 48.993538,
                "longitude": 8.400374
            },
            {
                "positionType": "station",
                "name": "Basel SBB",
                "countryCode": "CH",
                "cityName": "Basel",
                "latitude": 47.547075,
                "longitude": 7.589169
            },
            {
                "positionType": "station",
                "name": "Olten",
                "countryCode": "CH",
                "cityName": "Olten",
                "latitude": 47.350833,
                "longitude": 7.907778
            }
        ],
        "stattions_ar": [
            {
                "positionType": "station",
                "name": "Karlsruhe Hbf",
                "countryCode": "DE",
                "cityName": "Karlsruhe",
                "latitude": 48.993538,
                "longitude": 8.400374
            },
            {
                "positionType": "station",
                "name": "Basel SBB",
                "countryCode": "CH",
                "cityName": "Basel",
                "latitude": 47.547075,
                "longitude": 7.589169
            },
            {
                "positionType": "station",
                "name": "Olten",
                "countryCode": "CH",
                "cityName": "Olten",
                "latitude": 47.350833,
                "longitude": 7.907778
            },
            {
                "positionType": "station",
                "name": "Z\u00fcrich HB",
                "countryCode": "CH",
                "cityName": "Zurich",
                "latitude": 47.378186,
                "longitude": 8.539203
            }
        ],
        "url": "https://www.omio.com/search-frontend/journey/train/-1076342497/XB925EE67E48545858B3D3D34B0D19420/5867192479229425725"
    },
    "-1178786110/6139615983409513789": {
        "departureTime": "2019-05-31T06:45:00.000+02:00",
        "ar_time": "2019-05-31T11:10:00.000+02:00",
        "stops": "1",
        "companyName": "Lufthansa",
        "cID": "35",
        "price": 722.61,
        "segment": [
            -619879984,
            1627314302
        ],
        "mode": "flight",
        "stations_dep": [
            {
                "positionType": "airport",
                "name": "Munich Airport",
                "countryCode": "DE",
                "cityName": "M\u00fcnchen-flughafen",
                "iataCode": "MUC",
                "latitude": 48.354597,
                "longitude": 11.785065
            },
            {
                "positionType": "airport",
                "name": "Paris Charles de Gaulle Airport",
                "countryCode": "FR",
                "cityName": "Roissy-en-France",
                "iataCode": "CDG",
                "latitude": 49.0029701,
                "longitude": 2.577134
            }
        ],
        "stattions_ar": [
            {
                "positionType": "airport",
                "name": "Paris Charles de Gaulle Airport",
                "countryCode": "FR",
                "cityName": "Roissy-en-France",
                "iataCode": "CDG",
                "latitude": 49.0029701,
                "longitude": 2.577134
            },
            {
                "positionType": "airport",
                "name": "Zurich Airport",
                "countryCode": "CH",
                "cityName": "Kloten",
                "iataCode": "ZRH",
                "latitude": 47.4512017,
                "longitude": 8.5613956
            }
        ],
        "url": "https://www.omio.com/search-frontend/journey/flight/-1178786110/XB925EE67E48545858B3D3D34B0D19420/6139615983409513789"
    },
    "-515995552/7166129990940707133": {
        "departureTime": "2019-05-31T12:00:00.000+02:00",
        "ar_time": "2019-06-01T09:25:00.000+02:00",
        "stops": "1",
        "companyName": "BA Cityflyer",
        "cID": "57",
        "price": 524.16,
        "segment": [
            -2074041061,
            603584847
        ],
        "mode": "flight",
        "stations_dep": [
            {
                "positionType": "airport",
                "name": "Munich Airport",
                "countryCode": "DE",
                "cityName": "M\u00fcnchen-flughafen",
                "iataCode": "MUC",
                "latitude": 48.354597,
                "longitude": 11.785065
            },
            {
                "positionType": "airport",
                "name": "London Heathrow Airport",
                "countryCode": "GB",
                "cityName": "London",
                "iataCode": "LHR",
                "latitude": 51.4708554,
                "longitude": -0.452638
            }
        ],
        "stattions_ar": [
            {
                "positionType": "airport",
                "name": "London City Airport",
                "countryCode": "GB",
                "cityName": "London",
                "iataCode": "LCY",
                "latitude": 51.50341033935547,
                "longitude": 0.0487699992954731
            },
            {
                "positionType": "airport",
                "name": "Zurich Airport",
                "countryCode": "CH",
                "cityName": "Kloten",
                "iataCode": "ZRH",
                "latitude": 47.4512017,
                "longitude": 8.5613956
            }
        ],
        "url": "https://www.omio.com/search-frontend/journey/flight/-515995552/XB925EE67E48545858B3D3D34B0D19420/7166129990940707133"
    },
    "695712469/7154895228590249277": {
        "departureTime": "2019-05-31T20:35:00.000+02:00",
        "ar_time": "2019-06-01T08:50:00.000+02:00",
        "stops": "1",
        "companyName": "Air France",
        "cID": "44",
        "price": 203.45,
        "segment": [
            552695040,
            -739519098
        ],
        "mode": "flight",
        "stations_dep": [
            {
                "positionType": "airport",
                "name": "Munich Airport",
                "countryCode": "DE",
                "cityName": "M\u00fcnchen-flughafen",
                "iataCode": "MUC",
                "latitude": 48.354597,
                "longitude": 11.785065
            },
            {
                "positionType": "airport",
                "name": "Paris Charles de Gaulle Airport",
                "countryCode": "FR",
                "cityName": "Roissy-en-France",
                "iataCode": "CDG",
                "latitude": 49.0029701,
                "longitude": 2.577134
            }
        ],
        "stattions_ar": [
            {
                "positionType": "airport",
                "name": "Paris Charles de Gaulle Airport",
                "countryCode": "FR",
                "cityName": "Roissy-en-France",
                "iataCode": "CDG",
                "latitude": 49.0029701,
                "longitude": 2.577134
            },
            {
                "positionType": "airport",
                "name": "Zurich Airport",
                "countryCode": "CH",
                "cityName": "Kloten",
                "iataCode": "ZRH",
                "latitude": 47.4512017,
                "longitude": 8.5613956
            }
        ],
        "url": "https://www.omio.com/search-frontend/journey/flight/695712469/XB925EE67E48545858B3D3D34B0D19420/7154895228590249277"
    },
    "-1738500859/8309781568900919101": {
        "departureTime": "2019-05-31T11:30:00.000+02:00",
        "ar_time": "2019-05-31T16:00:00.000+02:00",
        "stops": "1",
        "companyName": "Lufthansa",
        "cID": "35",
        "price": 621.63,
        "segment": [
            -855840659,
            -1882592188
        ],
        "mode": "flight",
        "stations_dep": [
            {
                "positionType": "airport",
                "name": "Munich Airport",
                "countryCode": "DE",
                "cityName": "M\u00fcnchen-flughafen",
                "iataCode": "MUC",
                "latitude": 48.354597,
                "longitude": 11.785065
            },
            {
                "positionType": "airport",
                "name": "Dusseldorf Airport",
                "countryCode": "DE",
                "cityName": "D\u00fcsseldorf",
                "iataCode": "DUS",
                "latitude": 51.277448,
                "longitude": 6.766375
            }
        ],
        "stattions_ar": [
            {
                "positionType": "airport",
                "name": "Dusseldorf Airport",
                "countryCode": "DE",
                "cityName": "D\u00fcsseldorf",
                "iataCode": "DUS",
                "latitude": 51.277448,
                "longitude": 6.766375
            },
            {
                "positionType": "airport",
                "name": "Zurich Airport",
                "countryCode": "CH",
                "cityName": "Kloten",
                "iataCode": "ZRH",
                "latitude": 47.4512017,
                "longitude": 8.5613956
            }
        ],
        "url": "https://www.omio.com/search-frontend/journey/flight/-1738500859/XB925EE67E48545858B3D3D34B0D19420/8309781568900919101"
    },
    "-1363261058/6209750729109694269": {
        "departureTime": "2019-05-31T11:20:00.000+02:00",
        "ar_time": "2019-05-31T14:25:00.000+02:00",
        "stops": "1",
        "companyName": "Austrian Airlines",
        "cID": "81",
        "price": 640.17,
        "segment": [
            1758483746,
            -1651083292
        ],
        "mode": "flight",
        "stations_dep": [
            {
                "positionType": "airport",
                "name": "Munich Airport",
                "countryCode": "DE",
                "cityName": "M\u00fcnchen-flughafen",
                "iataCode": "MUC",
                "latitude": 48.354597,
                "longitude": 11.785065
            },
            {
                "positionType": "airport",
                "name": "Vienna International Airport",
                "countryCode": "AT",
                "cityName": "Schwechat",
                "iataCode": "VIE",
                "latitude": 48.121095,
                "longitude": 16.5612678
            }
        ],
        "stattions_ar": [
            {
                "positionType": "airport",
                "name": "Vienna International Airport",
                "countryCode": "AT",
                "cityName": "Schwechat",
                "iataCode": "VIE",
                "latitude": 48.121095,
                "longitude": 16.5612678
            },
            {
                "positionType": "airport",
                "name": "Zurich Airport",
                "countryCode": "CH",
                "cityName": "Kloten",
                "iataCode": "ZRH",
                "latitude": 47.4512017,
                "longitude": 8.5613956
            }
        ],
        "url": "https://www.omio.com/search-frontend/journey/flight/-1363261058/XB925EE67E48545858B3D3D34B0D19420/6209750729109694269"
    },
    "-1602974462/5643988023584845629": {
        "departureTime": "2019-05-31T17:00:00.000+02:00",
        "ar_time": "2019-05-31T17:55:00.000+02:00",
        "stops": "0",
        "companyName": "tab",
        "cID": "87",
        "price": 523.96,
        "segment": [
            315123772
        ],
        "mode": "flight",
        "stations_dep": [
            {
                "positionType": "airport",
                "name": "Munich Airport",
                "countryCode": "DE",
                "cityName": "M\u00fcnchen-flughafen",
                "iataCode": "MUC",
                "latitude": 48.354597,
                "longitude": 11.785065
            }
        ],
        "stattions_ar": [
            {
                "positionType": "airport",
                "name": "Zurich Airport",
                "countryCode": "CH",
                "cityName": "Kloten",
                "iataCode": "ZRH",
                "latitude": 47.4512017,
                "longitude": 8.5613956
            }
        ],
        "url": "https://www.omio.com/search-frontend/journey/flight/-1602974462/XB925EE67E48545858B3D3D34B0D19420/5643988023584845629"
    },
    "-553930295/4137473719852089661": {
        "departureTime": "2019-05-31T10:55:00.000+02:00",
        "ar_time": "2019-05-31T15:25:00.000+02:00",
        "stops": "1",
        "companyName": "eagle atlantic airlines",
        "cID": "3866",
        "price": 231.76,
        "segment": [
            -1237205523,
            -1509357096
        ],
        "mode": "flight",
        "stations_dep": [
            {
                "positionType": "airport",
                "name": "Munich Airport",
                "countryCode": "DE",
                "cityName": "M\u00fcnchen-flughafen",
                "iataCode": "MUC",
                "latitude": 48.354597,
                "longitude": 11.785065
            },
            {
                "positionType": "airport",
                "name": "Dusseldorf Airport",
                "countryCode": "DE",
                "cityName": "D\u00fcsseldorf",
                "iataCode": "DUS",
                "latitude": 51.277448,
                "longitude": 6.766375
            }
        ],
        "stattions_ar": [
            {
                "positionType": "airport",
                "name": "Dusseldorf Airport",
                "countryCode": "DE",
                "cityName": "D\u00fcsseldorf",
                "iataCode": "DUS",
                "latitude": 51.277448,
                "longitude": 6.766375
            },
            {
                "positionType": "airport",
                "name": "Zurich Airport",
                "countryCode": "CH",
                "cityName": "Kloten",
                "iataCode": "ZRH",
                "latitude": 47.4512017,
                "longitude": 8.5613956
            }
        ],
        "url": "https://www.omio.com/search-frontend/journey/flight/-553930295/XB925EE67E48545858B3D3D34B0D19420/4137473719852089661"
    },
    "979419022/3630801178766636861": {
        "departureTime": "2019-05-31T14:00:00.000+02:00",
        "ar_time": "2019-05-31T17:20:00.000+02:00",
        "stops": "1",
        "companyName": "Lufthansa",
        "cID": "35",
        "price": 633.27,
        "segment": [
            -1244485105,
            1249991796
        ],
        "mode": "flight",
        "stations_dep": [
            {
                "positionType": "airport",
                "name": "Munich Airport",
                "countryCode": "DE",
                "cityName": "M\u00fcnchen-flughafen",
                "iataCode": "MUC",
                "latitude": 48.354597,
                "longitude": 11.785065
            },
            {
                "positionType": "airport",
                "name": "Frankfurt am Main Airport",
                "countryCode": "DE",
                "cityName": "Frankfurt am Main",
                "iataCode": "FRA",
                "latitude": 50.05009,
                "longitude": 8.57155
            }
        ],
        "stattions_ar": [
            {
                "positionType": "airport",
                "name": "Frankfurt am Main Airport",
                "countryCode": "DE",
                "cityName": "Frankfurt am Main",
                "iataCode": "FRA",
                "latitude": 50.05009,
                "longitude": 8.57155
            },
            {
                "positionType": "airport",
                "name": "Zurich Airport",
                "countryCode": "CH",
                "cityName": "Kloten",
                "iataCode": "ZRH",
                "latitude": 47.4512017,
                "longitude": 8.5613956
            }
        ],
        "url": "https://www.omio.com/search-frontend/journey/flight/979419022/XB925EE67E48545858B3D3D34B0D19420/3630801178766636861"
    },
    "467766173/7094947793582712637": {
        "departureTime": "2019-05-31T18:20:00.000+02:00",
        "ar_time": "2019-05-31T21:20:00.000+02:00",
        "stops": "1",
        "companyName": "Swiss",
        "cID": "50",
        "price": 469.97,
        "segment": [
            -631209125,
            -1420803594
        ],
        "mode": "flight",
        "stations_dep": [
            {
                "positionType": "airport",
                "name": "Munich Airport",
                "countryCode": "DE",
                "cityName": "M\u00fcnchen-flughafen",
                "iataCode": "MUC",
                "latitude": 48.354597,
                "longitude": 11.785065
            },
            {
                "positionType": "airport",
                "name": "Geneva International Airport",
                "countryCode": "CH",
                "cityName": "Le Grand-Saconnex",
                "iataCode": "GVA",
                "latitude": 46.2334,
                "longitude": 6.104465
            }
        ],
        "stattions_ar": [
            {
                "positionType": "airport",
                "name": "Geneva International Airport",
                "countryCode": "CH",
                "cityName": "Le Grand-Saconnex",
                "iataCode": "GVA",
                "latitude": 46.2334,
                "longitude": 6.104465
            },
            {
                "positionType": "airport",
                "name": "Zurich Airport",
                "countryCode": "CH",
                "cityName": "Kloten",
                "iataCode": "ZRH",
                "latitude": 47.4512017,
                "longitude": 8.5613956
            }
        ],
        "url": "https://www.omio.com/search-frontend/journey/flight/467766173/XB925EE67E48545858B3D3D34B0D19420/7094947793582712637"
    },
    "-633255428/4139992585647320893": {
        "departureTime": "2019-05-31T13:50:00.000+02:00",
        "ar_time": "2019-05-31T14:45:00.000+02:00",
        "stops": "0",
        "companyName": "Lufthansa",
        "cID": "35",
        "price": 556.41,
        "segment": [
            1474215587
        ],
        "mode": "flight",
        "stations_dep": [
            {
                "positionType": "airport",
                "name": "Munich Airport",
                "countryCode": "DE",
                "cityName": "M\u00fcnchen-flughafen",
                "iataCode": "MUC",
                "latitude": 48.354597,
                "longitude": 11.785065
            }
        ],
        "stattions_ar": [
            {
                "positionType": "airport",
                "name": "Zurich Airport",
                "countryCode": "CH",
                "cityName": "Kloten",
                "iataCode": "ZRH",
                "latitude": 47.4512017,
                "longitude": 8.5613956
            }
        ],
        "url": "https://www.omio.com/search-frontend/journey/flight/-633255428/XB925EE67E48545858B3D3D34B0D19420/4139992585647320893"
    },
    "-23117228/7164225676026989885": {
        "departureTime": "2019-05-31T18:00:00.000+02:00",
        "ar_time": "2019-05-31T21:45:00.000+02:00",
        "stops": "1",
        "companyName": "Lufthansa",
        "cID": "35",
        "price": 473.35,
        "segment": [
            -1513648528,
            234593066
        ],
        "mode": "flight",
        "stations_dep": [
            {
                "positionType": "airport",
                "name": "Munich Airport",
                "countryCode": "DE",
                "cityName": "M\u00fcnchen-flughafen",
                "iataCode": "MUC",
                "latitude": 48.354597,
                "longitude": 11.785065
            },
            {
                "positionType": "airport",
                "name": "Frankfurt am Main Airport",
                "countryCode": "DE",
                "cityName": "Frankfurt am Main",
                "iataCode": "FRA",
                "latitude": 50.05009,
                "longitude": 8.57155
            }
        ],
        "stattions_ar": [
            {
                "positionType": "airport",
                "name": "Frankfurt am Main Airport",
                "countryCode": "DE",
                "cityName": "Frankfurt am Main",
                "iataCode": "FRA",
                "latitude": 50.05009,
                "longitude": 8.57155
            },
            {
                "positionType": "airport",
                "name": "Zurich Airport",
                "countryCode": "CH",
                "cityName": "Kloten",
                "iataCode": "ZRH",
                "latitude": 47.4512017,
                "longitude": 8.5613956
            }
        ],
        "url": "https://www.omio.com/search-frontend/journey/flight/-23117228/XB925EE67E48545858B3D3D34B0D19420/7164225676026989885"
    },
    "1439816109/3552014405841738045": {
        "departureTime": "2019-05-31T09:20:00.000+02:00",
        "ar_time": "2019-05-31T10:20:00.000+02:00",
        "stops": "0",
        "companyName": "Edelweiss Air",
        "cID": "123",
        "price": 745.3,
        "segment": [
            -1377300949
        ],
        "mode": "flight",
        "stations_dep": [
            {
                "positionType": "airport",
                "name": "Munich Airport",
                "countryCode": "DE",
                "cityName": "M\u00fcnchen-flughafen",
                "iataCode": "MUC",
                "latitude": 48.354597,
                "longitude": 11.785065
            }
        ],
        "stattions_ar": [
            {
                "positionType": "airport",
                "name": "Zurich Airport",
                "countryCode": "CH",
                "cityName": "Kloten",
                "iataCode": "ZRH",
                "latitude": 47.4512017,
                "longitude": 8.5613956
            }
        ],
        "url": "https://www.omio.com/search-frontend/journey/flight/1439816109/XB925EE67E48545858B3D3D34B0D19420/3552014405841738045"
    },
    "-753263271/6356953230023684925": {
        "departureTime": "2019-05-31T17:00:00.000+02:00",
        "ar_time": "2019-05-31T17:55:00.000+02:00",
        "stops": "0",
        "companyName": "Lufthansa",
        "cID": "35",
        "price": 556.41,
        "segment": [
            41010030
        ],
        "mode": "flight",
        "stations_dep": [
            {
                "positionType": "airport",
                "name": "Munich Airport",
                "countryCode": "DE",
                "cityName": "M\u00fcnchen-flughafen",
                "iataCode": "MUC",
                "latitude": 48.354597,
                "longitude": 11.785065
            }
        ],
        "stattions_ar": [
            {
                "positionType": "airport",
                "name": "Zurich Airport",
                "countryCode": "CH",
                "cityName": "Kloten",
                "iataCode": "ZRH",
                "latitude": 47.4512017,
                "longitude": 8.5613956
            }
        ],
        "url": "https://www.omio.com/search-frontend/journey/flight/-753263271/XB925EE67E48545858B3D3D34B0D19420/6356953230023684925"
    },
    "572993463/7444002876964491581": {
        "departureTime": "2019-05-31T06:35:00.000+02:00",
        "ar_time": "2019-05-31T15:30:00.000+02:00",
        "stops": "1",
        "companyName": "BA Cityflyer",
        "cID": "57",
        "price": 375.02,
        "segment": [
            896546825,
            -1375793664
        ],
        "mode": "flight",
        "stations_dep": [
            {
                "positionType": "airport",
                "name": "Munich Airport",
                "countryCode": "DE",
                "cityName": "M\u00fcnchen-flughafen",
                "iataCode": "MUC",
                "latitude": 48.354597,
                "longitude": 11.785065
            },
            {
                "positionType": "airport",
                "name": "London City Airport",
                "countryCode": "GB",
                "cityName": "London",
                "iataCode": "LCY",
                "latitude": 51.50341033935547,
                "longitude": 0.0487699992954731
            }
        ],
        "stattions_ar": [
            {
                "positionType": "airport",
                "name": "London City Airport",
                "countryCode": "GB",
                "cityName": "London",
                "iataCode": "LCY",
                "latitude": 51.50341033935547,
                "longitude": 0.0487699992954731
            },
            {
                "positionType": "airport",
                "name": "Zurich Airport",
                "countryCode": "CH",
                "cityName": "Kloten",
                "iataCode": "ZRH",
                "latitude": 47.4512017,
                "longitude": 8.5613956
            }
        ],
        "url": "https://www.omio.com/search-frontend/journey/flight/572993463/XB925EE67E48545858B3D3D34B0D19420/7444002876964491581"
    },
    "-1391022107/4847682275622603069": {
        "departureTime": "2019-05-31T13:50:00.000+02:00",
        "ar_time": "2019-05-31T14:45:00.000+02:00",
        "stops": "0",
        "companyName": "tab",
        "cID": "87",
        "price": 523.96,
        "segment": [
            863136087
        ],
        "mode": "flight",
        "stations_dep": [
            {
                "positionType": "airport",
                "name": "Munich Airport",
                "countryCode": "DE",
                "cityName": "M\u00fcnchen-flughafen",
                "iataCode": "MUC",
                "latitude": 48.354597,
                "longitude": 11.785065
            }
        ],
        "stattions_ar": [
            {
                "positionType": "airport",
                "name": "Zurich Airport",
                "countryCode": "CH",
                "cityName": "Kloten",
                "iataCode": "ZRH",
                "latitude": 47.4512017,
                "longitude": 8.5613956
            }
        ],
        "url": "https://www.omio.com/search-frontend/journey/flight/-1391022107/XB925EE67E48545858B3D3D34B0D19420/4847682275622603069"
    },
    "706243813/7947526524742487357": {
        "departureTime": "2019-05-31T15:35:00.000+02:00",
        "ar_time": "2019-05-31T19:30:00.000+02:00",
        "stops": "1",
        "companyName": "Austrian Airlines",
        "cID": "81",
        "price": 741.72,
        "segment": [
            274297168,
            -189687658
        ],
        "mode": "flight",
        "stations_dep": [
            {
                "positionType": "airport",
                "name": "Munich Airport",
                "countryCode": "DE",
                "cityName": "M\u00fcnchen-flughafen",
                "iataCode": "MUC",
                "latitude": 48.354597,
                "longitude": 11.785065
            },
            {
                "positionType": "airport",
                "name": "Graz Airport",
                "countryCode": "AT",
                "cityName": "Feldkirchen bei Graz",
                "iataCode": "GRZ",
                "latitude": 46.99632,
                "longitude": 15.44412
            }
        ],
        "stattions_ar": [
            {
                "positionType": "airport",
                "name": "Graz Airport",
                "countryCode": "AT",
                "cityName": "Feldkirchen bei Graz",
                "iataCode": "GRZ",
                "latitude": 46.99632,
                "longitude": 15.44412
            },
            {
                "positionType": "airport",
                "name": "Zurich Airport",
                "countryCode": "CH",
                "cityName": "Kloten",
                "iataCode": "ZRH",
                "latitude": 47.4512017,
                "longitude": 8.5613956
            }
        ],
        "url": "https://www.omio.com/search-frontend/journey/flight/706243813/XB925EE67E48545858B3D3D34B0D19420/7947526524742487357"
    },
    "-1279851165/7525606530036545597": {
        "departureTime": "2019-05-31T06:45:00.000+02:00",
        "ar_time": "2019-05-31T13:40:00.000+02:00",
        "stops": "1",
        "companyName": "eagle atlantic airlines",
        "cID": "3866",
        "price": 81.11,
        "segment": [
            1346449828,
            -517152300
        ],
        "mode": "flight",
        "stations_dep": [
            {
                "positionType": "airport",
                "name": "Munich Airport",
                "countryCode": "DE",
                "cityName": "M\u00fcnchen-flughafen",
                "iataCode": "MUC",
                "latitude": 48.354597,
                "longitude": 11.785065
            },
            {
                "positionType": "airport",
                "name": "Dusseldorf Airport",
                "countryCode": "DE",
                "cityName": "D\u00fcsseldorf",
                "iataCode": "DUS",
                "latitude": 51.277448,
                "longitude": 6.766375
            }
        ],
        "stattions_ar": [
            {
                "positionType": "airport",
                "name": "Dusseldorf Airport",
                "countryCode": "DE",
                "cityName": "D\u00fcsseldorf",
                "iataCode": "DUS",
                "latitude": 51.277448,
                "longitude": 6.766375
            },
            {
                "positionType": "airport",
                "name": "Zurich Airport",
                "countryCode": "CH",
                "cityName": "Kloten",
                "iataCode": "ZRH",
                "latitude": 47.4512017,
                "longitude": 8.5613956
            }
        ],
        "url": "https://www.omio.com/search-frontend/journey/flight/-1279851165/XB925EE67E48545858B3D3D34B0D19420/7525606530036545597"
    },
    "1314517015/3623259486423573309": {
        "departureTime": "2019-05-31T14:50:00.000+02:00",
        "ar_time": "2019-05-31T19:40:00.000+02:00",
        "stops": "1",
        "companyName": "eagle atlantic airlines",
        "cID": "3866",
        "price": 81.11,
        "segment": [
            -593599193,
            1942056605
        ],
        "mode": "flight",
        "stations_dep": [
            {
                "positionType": "airport",
                "name": "Munich Airport",
                "countryCode": "DE",
                "cityName": "M\u00fcnchen-flughafen",
                "iataCode": "MUC",
                "latitude": 48.354597,
                "longitude": 11.785065
            },
            {
                "positionType": "airport",
                "name": "Hamburg Airport",
                "countryCode": "DE",
                "cityName": "Hamburg",
                "iataCode": "HAM",
                "latitude": 53.63659,
                "longitude": 9.98318
            }
        ],
        "stattions_ar": [
            {
                "positionType": "airport",
                "name": "Hamburg Airport",
                "countryCode": "DE",
                "cityName": "Hamburg",
                "iataCode": "HAM",
                "latitude": 53.63659,
                "longitude": 9.98318
            },
            {
                "positionType": "airport",
                "name": "Zurich Airport",
                "countryCode": "CH",
                "cityName": "Kloten",
                "iataCode": "ZRH",
                "latitude": 47.4512017,
                "longitude": 8.5613956
            }
        ],
        "url": "https://www.omio.com/search-frontend/journey/flight/1314517015/XB925EE67E48545858B3D3D34B0D19420/3623259486423573309"
    },
    "732967902/6374677426034074429": {
        "departureTime": "2019-05-31T14:45:00.000+02:00",
        "ar_time": "2019-05-31T18:15:00.000+02:00",
        "stops": "1",
        "companyName": "carpatair",
        "cID": "107",
        "price": 282.53,
        "segment": [
            -995524606,
            351876516
        ],
        "mode": "flight",
        "stations_dep": [
            {
                "positionType": "airport",
                "name": "Munich Airport",
                "countryCode": "DE",
                "cityName": "M\u00fcnchen-flughafen",
                "iataCode": "MUC",
                "latitude": 48.354597,
                "longitude": 11.785065
            },
            {
                "positionType": "airport",
                "name": "Ljubljana Joze Pucnik Airport",
                "countryCode": "SI",
                "cityName": "Sencur",
                "iataCode": "LJU",
                "latitude": 46.23076,
                "longitude": 14.45495
            }
        ],
        "stattions_ar": [
            {
                "positionType": "airport",
                "name": "Ljubljana Joze Pucnik Airport",
                "countryCode": "SI",
                "cityName": "Sencur",
                "iataCode": "LJU",
                "latitude": 46.23076,
                "longitude": 14.45495
            },
            {
                "positionType": "airport",
                "name": "Zurich Airport",
                "countryCode": "CH",
                "cityName": "Kloten",
                "iataCode": "ZRH",
                "latitude": 47.4512017,
                "longitude": 8.5613956
            }
        ],
        "url": "https://www.omio.com/search-frontend/journey/flight/732967902/XB925EE67E48545858B3D3D34B0D19420/6374677426034074429"
    },
    "143646598/3761974843695323453": {
        "departureTime": "2019-05-31T11:40:00.000+02:00",
        "ar_time": "2019-05-31T12:35:00.000+02:00",
        "stops": "0",
        "companyName": "Lufthansa Cityline ",
        "cID": "36",
        "price": 523.96,
        "segment": [
            778454332
        ],
        "mode": "flight",
        "stations_dep": [
            {
                "positionType": "airport",
                "name": "Munich Airport",
                "countryCode": "DE",
                "cityName": "M\u00fcnchen-flughafen",
                "iataCode": "MUC",
                "latitude": 48.354597,
                "longitude": 11.785065
            }
        ],
        "stattions_ar": [
            {
                "positionType": "airport",
                "name": "Zurich Airport",
                "countryCode": "CH",
                "cityName": "Kloten",
                "iataCode": "ZRH",
                "latitude": 47.4512017,
                "longitude": 8.5613956
            }
        ],
        "url": "https://www.omio.com/search-frontend/journey/flight/143646598/XB925EE67E48545858B3D3D34B0D19420/3761974843695323453"
    },